{"category":"hospital","source":"wikidata","bbox":{"south":51.28,"west":-0.51,"north":51.7,"east":0.33},"places":[{"id":"Q1628509","name":"Royal Hospital Chelsea","lat":51.486388888,"lng":-0.157777777},{"id":"Q1349705","name":"Great Ormond Street Hospital","lat":51.5225,"lng":-0.1205},{"id":"Q831377","name":"Bethlem Royal Hospital","lat":51.380833333,"lng":-0.029444444},{"id":"Q5032193","name":"Cane Hill Hospital","lat":51.3128,"lng":-0.14906},{"id":"Q5049284","name":"Cassel Hospital","lat":51.4328,"lng":-0.3078},{"id":"Q6792344","name":"Maudsley Hospital","lat":51.468888888,"lng":-0.091111111},{"id":"Q6834036","name":"Michael Rutter Centre for Children and Adolescents","lat":51.4698,"lng":-0.0903},{"id":"Q2866638","name":"Friern Hospital","lat":51.614,"lng":-0.14839},{"id":"Q7567841","name":"South London Hospital for Women and Children","lat":51.4531,"lng":-0.146944},{"id":"Q107103988","name":"Potters Bar Clinic","lat":51.686561,"lng":-0.178052},{"id":"Q15198238","name":"Belgrave Hospital for Children","lat":51.48075278,"lng":-0.11314722},{"id":"Q25350570","name":"Tite Street Children's Hospital","lat":51.4859,"lng":-0.1629},{"id":"Q7568057","name":"South Ockendon Psychiatric Hospital","lat":51.5182,"lng":0.3013},{"id":"Q7580974","name":"Springfield Hospital","lat":51.4385,"lng":-0.1766},{"id":"Q7592462","name":"St Ann's Hospital","lat":51.5806,"lng":-0.0906},{"id":"Q5416238","name":"Evelina London Children's Hospital","lat":51.498055555,"lng":-0.118333333},{"id":"Q7270345","name":"Queen Elizabeth Hospital for Children","lat":51.5184,"lng":-0.06},{"id":"Q114024224","name":"Royal India Asylum","lat":51.5062,"lng":-0.3498},{"id":"Q27044428","name":"British Lying-In Hospital","lat":51.51485,"lng":-0.12479},{"id":"Q3145297","name":"Greenwich District Hospital","lat":51.485278,"lng":0.009167},{"id":"Q5906871","name":"Horton Hospital","lat":51.34360833,"lng":-0.28246944},{"id":"Q6481446","name":"Lambeth Hospital","lat":51.4666,"lng":-0.1231},{"id":"Q6672574","name":"Long Grove Hospital","lat":51.3494,"lng":-0.2901},{"id":"Q7245500","name":"Priory Hospital","lat":51.462604,"lng":-0.252054},{"id":"Q7796687","name":"Thorpe Coombe Hospital","lat":51.5907,"lng":-0.0079},{"id":"Q7969496","name":"Warley Hospital","lat":51.6073,"lng":0.293},{"id":"Q7986168","name":"West Park Hospital, Epsom","lat":51.3388,"lng":-0.3},{"id":"Q3336892","name":"National Hospital for Neurology and Neurosurgery","lat":51.522222222,"lng":-0.121944444},{"id":"Q134698916","name":"Annie McCall Maternity Hospital","lat":51.470244,"lng":-0.126758},{"id":"Q134698935","name":"Weir Maternity Hospital","lat":51.446519,"lng":-0.142437},{"id":"Q4710038","name":"Albert Dock Seamen's Hospital","lat":51.512,"lng":0.03767},{"id":"Q28405598","name":"Bexley Hospital","lat":51.4345,"lng":0.175},{"id":"Q3495316","name":"St George's Hospital","lat":51.4267,"lng":-0.1757},{"id":"Q3551343","name":"University College Hospital","lat":51.525241666,"lng":-0.134397222},{"id":"Q511360","name":"Elizabeth Garrett Anderson and Obstetric Hospital","lat":51.52804,"lng":-0.12965},{"id":"Q22000672","name":"Chiswick Asylum","lat":51.48361111,"lng":-0.25861111},{"id":"Q3495342","name":"St Mary's Hospital","lat":51.517222222,"lng":-0.173055555},{"id":"Q580652","name":"King Edward VII's Hospital","lat":51.520917,"lng":-0.150417},{"id":"Q4982607","name":"Charing Cross Hospital","lat":51.4871,"lng":-0.2195},{"id":"Q4815925","name":"Atkinson Morley Hospital","lat":51.4178,"lng":-0.2375},{"id":"Q1742181","name":"King's College Hospital","lat":51.468694444,"lng":-0.092222222},{"id":"Q777039","name":"Guy's Hospital","lat":51.503333333,"lng":-0.086944444},{"id":"Q1431700","name":"Middlesex Hospital","lat":51.519,"lng":-0.1377},{"id":"Q6751340","name":"Manor Hospital","lat":51.33894444,"lng":-0.28796111},{"id":"Q15979265","name":"Richmond Royal Hospital","lat":51.466778,"lng":-0.30047},{"id":"Q16932809","name":"Netherne Hospital","lat":51.292408,"lng":-0.140556},{"id":"Q88480720","name":"NHS Nightingale Hospital London","lat":51.508055555,"lng":0.030277777},{"id":"Q7592832","name":"St Clement's Hospital","lat":51.525833333,"lng":-0.029444444},{"id":"Q7593175","name":"St George's Hospital, Havering","lat":51.5468,"lng":0.2186},{"id":"Q7594066","name":"St Luke's Hospital for Lunatics","lat":51.525833333,"lng":-0.089722222},{"id":"Q7594554","name":"St Mary Abbot's Hospital","lat":51.497676,"lng":-0.190909},{"id":"Q7594991","name":"St Olave's Hospital","lat":51.4967,"lng":-0.0541667},{"id":"Q4878645","name":"Beckenham Beacon","lat":51.405,"lng":-0.033},{"id":"Q134700889","name":"Alexandra Maternity Home","lat":51.596722,"lng":-0.142899},{"id":"Q134869663","name":"Bushey Maternity Hospital","lat":51.636014,"lng":-0.331844},{"id":"Q4869747","name":"Battersea General Hospital","lat":51.4751,"lng":-0.164},{"id":"Q4861607","name":"Barnet General Hospital","lat":51.651,"lng":-0.215},{"id":"Q64555483","name":"Canning Crescent Health Centre","lat":51.60218,"lng":-0.11203},{"id":"Q5222549","name":"Darenth Park Hospital","lat":51.435,"lng":0.257778},{"id":"Q6825097","name":"Metropolitan Free Hospital","lat":51.54055833,"lng":-0.07671111},{"id":"Q6837376","name":"Michie Hospital","lat":51.5,"lng":-0.1797},{"id":"Q4970070","name":"British Hospital for Mothers and Babies","lat":51.4904,"lng":0.05012},{"id":"Q7275394","name":"RAF Hospital Uxbridge","lat":51.5458,"lng":-0.471389},{"id":"Q7374267","name":"Royal Herbert Hospital","lat":51.4708,"lng":0.0507},{"id":"Q5187669","name":"Cromwell Hospital","lat":51.4949,"lng":-0.1914},{"id":"Q5189706","name":"Croydon University Hospital","lat":51.39,"lng":-0.11},{"id":"Q7270174","name":"Queen Alexandra's Military Hospital","lat":51.4924279,"lng":-0.1276425},{"id":"Q7007110","name":"New End Hospital","lat":51.5583,"lng":-0.177778},{"id":"Q5763292","name":"Hillingdon Hospital","lat":51.525833,"lng":-0.461111},{"id":"Q5325481","name":"Ealing Hospital","lat":51.506944,"lng":-0.345556},{"id":"Q5330783","name":"Royal National ENT and Eastman Dental Hospitals","lat":51.522583333,"lng":-0.134563333},{"id":"Q5532007","name":"General Lying-In Hospital","lat":51.5016,"lng":-0.11666},{"id":"Q5130075","name":"Claybury Hospital","lat":51.6031,"lng":0.0687},{"id":"Q7085524","name":"Oldchurch Hospital","lat":51.5713,"lng":0.1781},{"id":"Q5604611","name":"Greentrees Hospital","lat":51.6102,"lng":-0.1003},{"id":"Q6978895","name":"National Temperance Hospital","lat":51.5287,"lng":-0.1381},{"id":"Q7618964","name":"Stone House Hospital","lat":51.4455,"lng":0.2447},{"id":"Q5090151","name":"Chelsea and Westminster Hospital","lat":51.484,"lng":-0.182},{"id":"Q15137935","name":"Greenwich Hospital","lat":51.483363,"lng":-0.006732},{"id":"Q15225199","name":"Hornsey Central Hospital","lat":51.584052,"lng":-0.131279},{"id":"Q15428772","name":"German Hospital","lat":51.5471,"lng":-0.0671},{"id":"Q7374459","name":"Royal Masonic Hospital","lat":51.4963,"lng":-0.241417},{"id":"Q7374602","name":"Royal Northern Hospital","lat":51.5608,"lng":-0.123},{"id":"Q7374877","name":"Royal Star and Garter Home, Richmond","lat":51.4502,"lng":-0.2974},{"id":"Q7374995","name":"Royal Waterloo Hospital for Children and Women","lat":51.505288,"lng":-0.113128},{"id":"Q6670225","name":"London Chest Hospital","lat":51.5321,"lng":-0.04926},{"id":"Q5061433","name":"Central Middlesex Hospital","lat":51.53103,"lng":-0.26914},{"id":"Q15979198","name":"Normansfield Hospital","lat":51.4202,"lng":-0.312561},{"id":"Q6670230","name":"The Charterhouse","lat":51.521388888,"lng":-0.099722222},{"id":"Q6670366","name":"London Fever Hospital","lat":51.5368,"lng":-0.1064},{"id":"Q6670564","name":"London Lock Hospital","lat":51.5002,"lng":-0.1495},{"id":"Q7587779","name":"St. Ebba's Hospital","lat":51.349,"lng":-0.274},{"id":"Q5645747","name":"Hammersmith Hospital","lat":51.5163,"lng":-0.2369},{"id":"Q5450923","name":"Finsbury Health Centre","lat":51.5249,"lng":-0.1089},{"id":"Q7968101","name":"Wanstead Hospital","lat":51.5845,"lng":0.0264},{"id":"Q7969501","name":"Warlingham Park Hospital","lat":51.3181,"lng":-0.03117},{"id":"Q7989168","name":"Westminster Hospital","lat":51.5,"lng":-0.1291},{"id":"Q5689722","name":"Headley Court","lat":51.292,"lng":-0.278},{"id":"Q5087127","name":"Chase Farm Hospital","lat":51.667,"lng":-0.103},{"id":"Q7380700","name":"Rush Green Hospital","lat":51.5602,"lng":0.1763},{"id":"Q28404469","name":"Highgate Hospital","lat":51.56674,"lng":-0.14234},{"id":"Q28405723","name":"Bexley Hospital, Bexleyheath","lat":51.4571,"lng":0.1312},{"id":"Q28405828","name":"Queen Mary's Hospital for the East End","lat":51.54207,"lng":0.00528},{"id":"Q27083460","name":"Original Block Of Former St Marks Hospital","lat":51.529843,"lng":-0.098993},{"id":"Q27087536","name":"Former Annie Mccall Hospital","lat":51.470592,"lng":-0.128014},{"id":"Q23891199","name":"Brook General Hospital","lat":51.4721,"lng":0.0476},{"id":"Q5651415","name":"St Bernard's Hospital","lat":51.5064,"lng":-0.3516},{"id":"Q5656797","name":"Harefield Hospital","lat":51.607,"lng":-0.483},{"id":"Q5662828","name":"Harold Wood Hospital","lat":51.5925,"lng":0.2261},{"id":"Q5759378","name":"Highlands Hospital","lat":51.6449,"lng":-0.11089},{"id":"Q6669893","name":"London Bridge Hospital","lat":51.5064,"lng":-0.0859},{"id":"Q5383985","name":"Epsom Cluster","lat":51.3437,"lng":-0.2833},{"id":"Q5383989","name":"Epsom Cottage Hospital","lat":51.3419,"lng":-0.3013},{"id":"Q4819127","name":"Aubrey House","lat":51.5058,"lng":-0.202589},{"id":"Q26355494","name":"Children's Day Hospital","lat":51.490111,"lng":-0.115512},{"id":"Q26532766","name":"Samaritan Hospital For Women","lat":51.520807,"lng":-0.163412},{"id":"Q26556191","name":"The Salvation Army Mothers' Hospital, Front Buildings","lat":51.553604,"lng":-0.053908},{"id":"Q26656388","name":"Former Hospital (Building 41), Hounslow Barracks","lat":51.469451,"lng":-0.386513},{"id":"Q26665303","name":"Surrey Dispensary","lat":51.497854,"lng":-0.091075},{"id":"Q26672415","name":"Bolingbroke Hospital","lat":51.456194,"lng":-0.168287},{"id":"Q2692584","name":"Epsom General Hospital","lat":51.32527778,"lng":-0.2725},{"id":"Q4884815","name":"Beltwood House","lat":51.43303,"lng":-0.070948},{"id":"Q7593367","name":"St Helier Hospital","lat":51.3803,"lng":-0.1836},{"id":"Q6975110","name":"National Psychosis Unit","lat":51.38087,"lng":-0.03061},{"id":"Q7374518","name":"Royal National Orthopaedic Hospital","lat":51.632,"lng":-0.305},{"id":"Q7374519","name":"Royal National Throat, Nose and Ear Hospital","lat":51.529167,"lng":-0.119167},{"id":"Q134700950","name":"Bermondsey Medical Mission Hospital","lat":51.495261,"lng":-0.079416},{"id":"Q134705107","name":"Streatham Babies Hospital","lat":51.436956,"lng":-0.125271},{"id":"Q134776320","name":"Bromley, Chislehurst and District Maternity Hospital","lat":51.406505,"lng":0.028182},{"id":"Q134776515","name":"Brookfield Orthopaedic Hospital","lat":51.606496,"lng":0.008315},{"id":"Q134776777","name":"Forest Hospital, Buckhurst Hill","lat":51.629814,"lng":0.042188},{"id":"Q134776863","name":"Chiswick Maternity Hospital","lat":51.489015,"lng":-0.246152},{"id":"Q60747278","name":"St Lawrence's Hospital, Caterham","lat":51.286,"lng":-0.0997},{"id":"Q7374301","name":"Royal Hospital for Neuro-disability","lat":51.45191701,"lng":-0.21417767},{"id":"Q7374417","name":"Royal London Hospital for Integrated Medicine","lat":51.5216,"lng":-0.1214},{"id":"Q7374421","name":"The Royal London Hospital","lat":51.517972222,"lng":-0.05875},{"id":"Q7863956","name":"UCH Macmillan Cancer Centre","lat":51.5232022,"lng":-0.1372915},{"id":"Q7244808","name":"Princess Royal University Hospital","lat":51.365278,"lng":0.053611},{"id":"Q7987822","name":"Western Eye Hospital","lat":51.5208,"lng":-0.1635},{"id":"Q56452151","name":"King George Military Hospital","lat":51.5056785,"lng":-0.1125359},{"id":"Q7231952","name":"Portland Hospital","lat":51.5227,"lng":-0.1436},{"id":"Q7018154","name":"Newham University Hospital","lat":51.523,"lng":0.036},{"id":"Q3656999","name":"Charlton House","lat":51.4805,"lng":0.0371547},{"id":"Q42291401","name":"Poplar Hospital","lat":51.51176667,"lng":-0.00705},{"id":"Q124749523","name":"Mildmay Mission Hospital","lat":51.527777777,"lng":-0.075833333},{"id":"Q18708275","name":"Harlington, Harmondsworth and Cranford Cottage Hospital","lat":51.4896,"lng":-0.4482},{"id":"Q55605116","name":"Beckenham Hospital","lat":51.405,"lng":-0.033},{"id":"Q55607704","name":"City of London Maternity Hospital","lat":51.5684,"lng":-0.119},{"id":"Q55613033","name":"Grove Hospital","lat":51.4278,"lng":-0.1684},{"id":"Q60754036","name":"Princess Louise Hospital","lat":51.5203,"lng":-0.2221},{"id":"Q60754074","name":"Westminster Children's Hospital","lat":51.4925,"lng":-0.1366},{"id":"Q60754130","name":"Paddington General Hospital","lat":51.5231,"lng":-0.1978},{"id":"Q60760752","name":"Fulham Hospital","lat":51.4871,"lng":-0.2195},{"id":"Q60763293","name":"Coppetts Wood Hospital","lat":51.602,"lng":-0.1539},{"id":"Q60763595","name":"St Giles' Hospital","lat":51.4756,"lng":-0.0835},{"id":"Q1946861","name":"Moorfields Eye Hospital","lat":51.527222222,"lng":-0.09},{"id":"Q60747058","name":"New Cross Hospital, Deptford","lat":51.4791,"lng":-0.0517},{"id":"Q60747146","name":"Miller General Hospital","lat":51.47527778,"lng":-0.02111111},{"id":"Q6411611","name":"King George Hospital, London","lat":51.580416666,"lng":0.112083333},{"id":"Q55621771","name":"Maida Vale Hospital for Nervous Diseases","lat":51.5262,"lng":-0.1807},{"id":"Q55628344","name":"Paddington Green Children's Hospital","lat":51.520922,"lng":-0.173642},{"id":"Q55633587","name":"South Middlesex Hospital","lat":51.457,"lng":-0.3379},{"id":"Q55633850","name":"St Paul's Hospital, Endell Street","lat":51.51485,"lng":-0.12479},{"id":"Q55633855","name":"St Philip's Hospital, Sheffield Street","lat":51.5148,"lng":-0.1176},{"id":"Q55637564","name":"Western Hospital, Fulham","lat":51.4851,"lng":-0.1953},{"id":"Q7595036","name":"St Pancras Hospital","lat":51.536111,"lng":-0.132222},{"id":"Q5908729","name":"Hospital for Tropical Diseases","lat":51.5227,"lng":-0.1356},{"id":"Q5908758","name":"Hospital of St John and St Elizabeth","lat":51.5328,"lng":-0.174167},{"id":"Q7270013","name":"Queen's Hospital","lat":51.5691,"lng":0.1789},{"id":"Q7270242","name":"Queen Charlotte's and Chelsea Hospital","lat":51.5161,"lng":-0.2373},{"id":"Q7270343","name":"Queen Elizabeth Hospital, London","lat":51.478889,"lng":0.051111},{"id":"Q7739155","name":"The Heart Hospital","lat":51.5197,"lng":-0.14973},{"id":"Q107653617","name":"Royal Dental Hospital","lat":51.509694444,"lng":-0.129694444},{"id":"Q7056104","name":"North Middlesex University Hospital","lat":51.613055555,"lng":-0.075},{"id":"Q6924380","name":"Mount Vernon Hospital","lat":51.6168,"lng":-0.4447},{"id":"Q55076711","name":"Banstead Hospital","lat":51.3355,"lng":-0.1897},{"id":"Q55099146","name":"Royal Chest Hospital","lat":51.529,"lng":-0.093},{"id":"Q7270446","name":"Queen Mary's Hospital","lat":51.4553,"lng":-0.2422},{"id":"Q7270448","name":"Queen Mary's Hospital, Sidcup","lat":51.418889,"lng":0.101389},{"id":"Q28963287","name":"St James' Hospital, Balham","lat":51.4423,"lng":-0.1632},{"id":"Q17526584","name":"The London Foot Hospital And Attached Railings","lat":51.5225,"lng":-0.139629},{"id":"Q18160812","name":"Joyce Green Hospital","lat":51.4636,"lng":0.2268},{"id":"Q18392694","name":"St Peter's Hospital","lat":51.511101,"lng":-0.124013},{"id":"Q7060443","name":"Northwick Park Hospital","lat":51.576,"lng":-0.322},{"id":"Q11710128","name":"St Christopher's Hospice","lat":51.4223,"lng":-0.058},{"id":"Q16845030","name":"Hounslow Hospital","lat":51.4679,"lng":-0.3733},{"id":"Q20714121","name":"West London Hospital","lat":51.49321,"lng":-0.2221},{"id":"Q20876281","name":"Royal Ear Hospital building","lat":51.5226,"lng":-0.1375},{"id":"Q6410963","name":"King's Health Partners","lat":51.503754,"lng":-0.087933},{"id":"Q16840254","name":"Grey Towers","lat":51.564,"lng":0.213},{"id":"Q16841778","name":"Hayes Cottage Hospital","lat":51.5216,"lng":-0.4236},{"id":"Q17531413","name":"Southwark Adult Education Institute","lat":51.4721,"lng":-0.0536897},{"id":"Q14956783","name":"University Hospital Lewisham","lat":51.4533,"lng":-0.0172222},{"id":"Q16932665","name":"St Andrew's Hospital","lat":51.562,"lng":-0.2336},{"id":"Q16932676","name":"St Benedict's Hospital","lat":51.4258,"lng":-0.1567},{"id":"Q16932690","name":"Neasden Hospital","lat":51.55,"lng":-0.26},{"id":"Q16934164","name":"Northwood and Pinner Cottage Hospital","lat":51.6039,"lng":-0.4138},{"id":"Q16965316","name":"St Leonard's Hospital","lat":51.5333,"lng":-0.0774},{"id":"Q21585413","name":"St Alfege's Hospital","lat":51.48527778,"lng":0.00916667},{"id":"Q6851069","name":"Mile End Hospital","lat":51.52475,"lng":-0.043041666},{"id":"Q7589963","name":"St. Mark's Hospital","lat":51.575833,"lng":-0.320278},{"id":"Q7373850","name":"Royal Brompton Hospital","lat":51.4894,"lng":-0.1707},{"id":"Q22004592","name":"Shenley Hospital","lat":51.69444444,"lng":-0.29277778},{"id":"Q7993761","name":"Whipps Cross University Hospital","lat":51.5779,"lng":0.00197},{"id":"Q18392722","name":"St James Workhouse","lat":51.5141,"lng":-0.1374},{"id":"Q15262154","name":"Newington Workhouse","lat":51.48555556,"lng":-0.08416667},{"id":"Q20714162","name":"Weymouth Street Hospital","lat":51.5202,"lng":-0.1506},{"id":"Q16983704","name":"Barnes Hospital, London","lat":51.4672,"lng":-0.256472},{"id":"Q17022101","name":"Teddington Memorial Hospital","lat":51.4258,"lng":-0.340944},{"id":"Q23891198","name":"Memorial Hospital, Woolwich","lat":51.4689,"lng":0.0654},{"id":"Q16900532","name":"St. Anthony's Hospital, North Cheam","lat":51.3796,"lng":-0.220692},{"id":"Q30293182","name":"Wilson Hospital","lat":51.3974,"lng":-0.1631},{"id":"Q30293205","name":"Brentwood Community Hospital","lat":51.6234036,"lng":0.3161743},{"id":"Q30293208","name":"Bridgeways Day Hospital","lat":51.38593,"lng":0.04251},{"id":"Q7974617","name":"Watford General Hospital","lat":51.648888888,"lng":-0.404166666},{"id":"Q28135869","name":"London Women's Clinic","lat":51.521512,"lng":-0.148271},{"id":"Q17001820","name":"Endell Street Military Hospital","lat":51.5154,"lng":-0.1255},{"id":"Q26672822","name":"The Walworth Clinic","lat":51.490634,"lng":-0.096618},{"id":"Q25171377","name":"Darent Valley Hospital","lat":51.435,"lng":0.2584},{"id":"Q19654384","name":"Homerton University Hospital","lat":51.550411111,"lng":-0.046111111},{"id":"Q56585212","name":"King's College Hospital Charity","lat":51.542835,"lng":-0.119257},{"id":"Q30270395","name":"Respiratory Clinical Trials","lat":51.518175,"lng":-0.147059},{"id":"Q30292749","name":"Mount Vernon Hospital","lat":51.6153,"lng":-0.4461},{"id":"Q30292897","name":"Purley War Memorial Hospital","lat":51.3402,"lng":-0.1145},{"id":"Q30292904","name":"Queen Mary's Hospital For Children","lat":51.349,"lng":-0.1699},{"id":"Q28404470","name":"Highgate Private Hospital","lat":51.5764,"lng":-0.15672},{"id":"Q28404845","name":"Finchley Memorial Hospital","lat":51.6056,"lng":-0.1763},{"id":"Q65063842","name":"No. 2 New Zealand General Hospital","lat":51.3866,"lng":-0.4256},{"id":"Q30292829","name":"Orpington Hospital","lat":51.3622,"lng":0.095},{"id":"Q30292831","name":"Ashford Hospital","lat":51.4415,"lng":-0.469},{"id":"Q30292844","name":"Sevenoaks Hospital","lat":51.288264,"lng":0.194757},{"id":"Q30292861","name":"Barking Community Hospital","lat":51.53868,"lng":0.09866},{"id":"Q30292891","name":"Tolworth Hospital","lat":51.3795,"lng":-0.2891},{"id":"Q65059508","name":"Tooting Bec Hospital","lat":51.4307,"lng":-0.1514},{"id":"Q30292995","name":"Dulwich Community Hospital","lat":51.4585,"lng":-0.0813},{"id":"Q30293023","name":"Sutton Hospital","lat":51.344802,"lng":-0.193651},{"id":"Q86752611","name":"West Hill Hospital","lat":51.4459,"lng":0.2109},{"id":"Q30292939","name":"Bishops Wood Hospital","lat":51.61643,"lng":-0.44662},{"id":"Q30265255","name":"St Michaels Hospital","lat":51.661764,"lng":-0.084355},{"id":"Q43895105","name":"London Eye Hospital","lat":51.517176,"lng":-0.145805},{"id":"Q7981418","name":"Wellington Hospital, London","lat":51.5325,"lng":-0.1726},{"id":"Q7985920","name":"West Middlesex University Hospital","lat":51.4736,"lng":-0.3257},{"id":"Q30293120","name":"Goodmayes Hospital","lat":51.5763,"lng":0.1105},{"id":"Q30293035","name":"Edgware Community Hospital","lat":51.60634,"lng":-0.270583},{"id":"Q30293050","name":"Spire Hartswood Hospital","lat":51.600416,"lng":0.293055},{"id":"Q30293058","name":"Erith and District Hospital","lat":51.4771,"lng":0.1667},{"id":"Q30293099","name":"Caterham Dene Hospital","lat":51.2839,"lng":-0.08557},{"id":"Q50036676","name":"Fortius Clinic","lat":51.516526,"lng":-0.153357},{"id":"Q50036846","name":"London Vision Clinic","lat":51.523402,"lng":-0.148551},{"id":"Q50517755","name":"Kingston Hospital","lat":51.414503,"lng":-0.282107},{"id":"Q50575536","name":"Royal Marsden Hospital","lat":51.491278,"lng":-0.172583},{"id":"Q60763352","name":"Bromley Hospital","lat":51.3971,"lng":0.01927},{"id":"Q60747194","name":"The Gordon Hospital","lat":51.4922,"lng":-0.136},{"id":"Q96400174","name":"Princess Beatrice Hospital","lat":51.4884368,"lng":-0.1926156},{"id":"Q111231232","name":"Savoy Hospital","lat":51.510555555,"lng":-0.120277777},{"id":"Q105376589","name":"Eltham Community Hospital","lat":51.44942,"lng":0.05401},{"id":"Q108830358","name":"London Foot Hospital","lat":51.52257,"lng":-0.13955},{"id":"Q1143779","name":"St Thomas' Hospital","lat":51.4991,"lng":-0.11891},{"id":"Q7374196","name":"Royal Free Hospital","lat":51.5531,"lng":-0.1654},{"id":"Q134506527","name":"Central London Ophthalmic Hospital","lat":51.5262,"lng":-0.1241},{"id":"Q88375254","name":"West Valley Hospital","lat":51.38001,"lng":-0.10038},{"id":"Q138545188","name":"Dame Gertrude Young House","lat":51.52184,"lng":-0.31365},{"id":"Q137798451","name":"Clementine Churchill Hospital","lat":51.56508,"lng":-0.332295},{"id":"Q7433944","name":"Scio House Hospital","lat":51.4472,"lng":-0.2322},{"id":"Q5074354","name":"Charing Cross Hospital Medical School","lat":51.4872,"lng":-0.2202},{"id":"Q135436213","name":"Cadogan Clinic","lat":51.49446,"lng":-0.15857},{"id":"Q7996907","name":"Whittington Hospital","lat":51.5665,"lng":-0.1395},{"id":"Q106610682","name":"Putney Hospital","lat":51.469011,"lng":-0.228598},{"id":"Q139569207","name":"London Skin Clinic","lat":51.5216,"lng":-0.149},{"id":"Q30292836","name":"Ashtead Hospital","lat":51.30451,"lng":-0.30331},{"id":"Q60746347","name":"Nightingale Hospital","lat":51.5218,"lng":-0.1652},{"id":"Q6646489","name":"Lister Hospital, Chelsea","lat":51.4863,"lng":-0.1502},{"id":"Q6671010","name":"London Welbeck Hospital","lat":51.5182,"lng":-0.1496},{"id":"Q14996990","name":"The London Clinic","lat":51.52297222,"lng":-0.15027778},{"id":"Q16901558","name":"The Princess Grace Hospital","lat":51.5225,"lng":-0.153056}]}
