{"category":"park","source":"wikidata","bbox":{"south":51.28,"west":-0.51,"north":51.7,"east":0.33},"places":[{"id":"Q5189711","name":"Croydon Water Palace","lat":51.356,"lng":-0.115},{"id":"Q115301273","name":"Hackbridge Green","lat":51.3781,"lng":-0.1586},{"id":"Q137739740","name":"Watford Heath","lat":51.638589,"lng":-0.384684},{"id":"Q138521003","name":"Patchetts Green","lat":51.664295,"lng":-0.351312},{"id":"Q188617","name":"Kew Gardens","lat":51.478888888,"lng":-0.293611111},{"id":"Q5025055","name":"Camberwell Green","lat":51.475,"lng":-0.093},{"id":"Q5506595","name":"Fryent Country Park","lat":51.5775,"lng":-0.2725},{"id":"Q6395235","name":"Keston Common","lat":51.3584,"lng":0.0348},{"id":"Q8033332","name":"Woodside Green","lat":51.3885,"lng":-0.0682},{"id":"Q1069148","name":"Chelsea Physic Garden","lat":51.485,"lng":-0.162777777},{"id":"Q72076556","name":"Waterglade Industrial Park","lat":51.476726,"lng":0.269944},{"id":"Q4968149","name":"Brimsdown Industrial Estate","lat":51.6557,"lng":-0.024526},{"id":"Q808277","name":"Barking Park","lat":51.545,"lng":0.088},{"id":"Q810947","name":"Battersea Park","lat":51.4793,"lng":-0.1573},{"id":"Q739341","name":"Regent's Park","lat":51.532222222,"lng":-0.156666666},{"id":"Q822607","name":"Kensington Gardens","lat":51.507222222,"lng":-0.180277777},{"id":"Q1570958","name":"Hampstead Heath","lat":51.561111111,"lng":-0.161111111},{"id":"Q60052731","name":"Whalebones Park","lat":51.6524,"lng":-0.215},{"id":"Q119955440","name":"Meanwhile Gardens","lat":51.524574938,"lng":-0.20523616},{"id":"Q123738","name":"Hyde Park","lat":51.508611111,"lng":-0.163611111},{"id":"Q119892","name":"Green Park","lat":51.504166666,"lng":-0.143611111},{"id":"Q216914","name":"St James's Park","lat":51.5025,"lng":-0.135},{"id":"Q149942","name":"Primrose Hill","lat":51.5396,"lng":-0.1608},{"id":"Q5679170","name":"RHS Garden, Wisley","lat":51.313,"lng":-0.4742},{"id":"Q181044","name":"Trent Park","lat":51.66,"lng":-0.134444444},{"id":"Q56277919","name":"Bushey Rose Garden","lat":51.6441,"lng":-0.3605},{"id":"Q7567837","name":"South London Botanical Institute","lat":51.4435,"lng":-0.1047},{"id":"Q96396881","name":"Queen Mary's Gardens","lat":51.5275,"lng":-0.151388888},{"id":"Q96397167","name":"Rose Garden, Greenwich Park","lat":51.473578,"lng":-0.001124},{"id":"Q93829852","name":"Beddington Farmlands","lat":51.3809,"lng":-0.1507},{"id":"Q104867590","name":"Rush Common","lat":51.455833333,"lng":-0.118611111},{"id":"Q1353149","name":"Mile End Park","lat":51.526111111,"lng":-0.0375},{"id":"Q1304231","name":"Finsbury Circus","lat":51.5178,"lng":-0.086595},{"id":"Q1330941","name":"Royal Parks of London","lat":51.5081,"lng":-0.1654},{"id":"Q929586","name":"Greenwich Park","lat":51.4767,"lng":0.00013},{"id":"Q2736153","name":"Lincoln's Inn Fields","lat":51.5161,"lng":-0.1166},{"id":"Q1017532","name":"Bushy Park","lat":51.412777777,"lng":-0.338055555},{"id":"Q1065157","name":"Turnham Green","lat":51.491944444,"lng":-0.266111111},{"id":"Q18748726","name":"Royal Botanic Gardens, Kew","lat":51.478694444,"lng":-0.295611111},{"id":"Q1142072","name":"Richmond Park","lat":51.443333333,"lng":-0.275},{"id":"Q2290816","name":"Jubilee Gardens","lat":51.5038,"lng":-0.1184},{"id":"Q2176986","name":"Russia Dock Woodland","lat":51.501,"lng":-0.039},{"id":"Q2918203","name":"Alexandra Park","lat":51.594692,"lng":-0.126752},{"id":"Q2909007","name":"Hampton Court Park","lat":51.4036,"lng":-0.32655},{"id":"Q2909021","name":"Morden Hall Park","lat":51.4011,"lng":-0.1875},{"id":"Q2551235","name":"Wimbledon Common","lat":51.429722222,"lng":-0.238333333},{"id":"Q1770716","name":"Burgess Park","lat":51.483576,"lng":-0.081841},{"id":"Q1785211","name":"Addington Hills","lat":51.363,"lng":-0.058},{"id":"Q3196577","name":"Kilburn Grange Park","lat":51.5439,"lng":-0.1975},{"id":"Q3305517","name":"Postman's Park","lat":51.5168,"lng":-0.0976431},{"id":"Q2036052","name":"Parliament Hill","lat":51.559722222,"lng":-0.159722222},{"id":"Q3135423","name":"Highbury Fields","lat":51.5503,"lng":-0.101667},{"id":"Q2553223","name":"Weald Country Park","lat":51.6274,"lng":0.26539},{"id":"Q107176945","name":"SegaWorld London","lat":51.511,"lng":-0.133},{"id":"Q3428134","name":"Crystal Palace Dinosaurs","lat":51.4175,"lng":-0.06722222},{"id":"Q4861296","name":"Barn Elms","lat":51.4736,"lng":-0.230833},{"id":"Q4861604","name":"Barnet Gate Wood","lat":51.6389,"lng":-0.2447},{"id":"Q4863131","name":"Barra Hall Park","lat":51.5178,"lng":-0.423333},{"id":"Q4865415","name":"Bartlett Park","lat":51.514722222,"lng":-0.022222222},{"id":"Q4867506","name":"Basing Hill Park","lat":51.5685,"lng":-0.206},{"id":"Q5221102","name":"Danson Park","lat":51.4566,"lng":0.11729},{"id":"Q4681189","name":"Addington Park","lat":51.356,"lng":-0.038},{"id":"Q4681191","name":"Addington Vale","lat":51.343,"lng":-0.011},{"id":"Q4681212","name":"Addiscombe Railway Park","lat":51.3822,"lng":-0.0783333},{"id":"Q4713597","name":"Aldenham Country Park","lat":51.6472,"lng":-0.313889},{"id":"Q4801146","name":"Artillery Ground","lat":51.5219,"lng":-0.0887},{"id":"Q4804675","name":"Ashburton Park","lat":51.3852,"lng":-0.06709},{"id":"Q5092489","name":"Cherry Tree Wood","lat":51.5859,"lng":-0.1598},{"id":"Q5094022","name":"Chestnuts Park","lat":51.5825,"lng":-0.09},{"id":"Q5098616","name":"Childs Hill Park","lat":51.5675,"lng":-0.2009},{"id":"Q5100293","name":"Chinbrook Meadows","lat":51.429,"lng":0.028},{"id":"Q5102118","name":"Chislehurst Common","lat":51.41,"lng":0.066666666},{"id":"Q5126285","name":"Clarefield Park","lat":51.572,"lng":-0.221},{"id":"Q5466565","name":"Foots Cray Meadows","lat":51.4258,"lng":0.1271},{"id":"Q5447699","name":"Figge's Marsh","lat":51.414,"lng":-0.16},{"id":"Q4668167","name":"Abney Park","lat":51.5649,"lng":-0.0781},{"id":"Q4974338","name":"Brook Green","lat":51.4964,"lng":-0.2205},{"id":"Q5556567","name":"Newington Gardens","lat":51.4975,"lng":-0.095833333},{"id":"Q5560291","name":"Giggs Hill Green","lat":51.386,"lng":-0.333},{"id":"Q5566342","name":"Gladstone Park","lat":51.5577,"lng":-0.2362},{"id":"Q5503378","name":"Friary Park","lat":51.6185,"lng":-0.1624},{"id":"Q5134465","name":"Clitterhouse Recreation Ground","lat":51.569,"lng":-0.215},{"id":"Q5638692","name":"Haggerston Park","lat":51.5331,"lng":-0.0675},{"id":"Q5604866","name":"Greenwich Peninsula Ecology Park","lat":51.4949,"lng":0.0163},{"id":"Q5619226","name":"Gunnersbury Park","lat":51.498,"lng":-0.292},{"id":"Q5623512","name":"Gwendwr Garden","lat":51.4914,"lng":-0.2087},{"id":"Q4878647","name":"Beckenham Place Park","lat":51.4151,"lng":-0.020143},{"id":"Q4878773","name":"Beckton District Park","lat":51.516,"lng":0.0435},{"id":"Q4881879","name":"Belair Park","lat":51.443,"lng":-0.09},{"id":"Q4882725","name":"Belhus","lat":51.51048,"lng":0.268229},{"id":"Q4875999","name":"Beacon Wood Country Park","lat":51.4232,"lng":0.2889},{"id":"Q7135338","name":"London Paramount","lat":51.4618,"lng":0.311745},{"id":"Q5595750","name":"Grangewood Park","lat":51.404,"lng":-0.09},{"id":"Q5303173","name":"Downhills Park","lat":51.5894,"lng":-0.0911111},{"id":"Q5311517","name":"Ducketts Common","lat":51.5881,"lng":-0.1024},{"id":"Q5313183","name":"Dukes Meadows","lat":51.4752,"lng":-0.2617},{"id":"Q5316056","name":"Duppas Hill","lat":51.367222222,"lng":-0.109722222},{"id":"Q5325475","name":"Ealing Common","lat":51.511,"lng":-0.294},{"id":"Q5328494","name":"East Greenwich Pleasaunce","lat":51.4846,"lng":0.01402},{"id":"Q4914186","name":"Bingfield Park","lat":51.5397,"lng":-0.121111},{"id":"Q4918064","name":"Bishops Park","lat":51.46992,"lng":-0.21684},{"id":"Q4918957","name":"Bittacy Hill Park","lat":51.611,"lng":-0.215},{"id":"Q4930880","name":"Blythe Hill Fields","lat":51.4523,"lng":-0.0333},{"id":"Q4931590","name":"Bob's Park","lat":51.5267,"lng":-0.0135},{"id":"Q5374828","name":"Emslie Horniman's Pleasance","lat":51.5253,"lng":-0.2092},{"id":"Q5377327","name":"Enfield Town Park","lat":51.6492,"lng":-0.08682},{"id":"Q5383988","name":"Epsom Common","lat":51.33,"lng":-0.29},{"id":"Q115863637","name":"Kennington Outdoor Gym","lat":51.489788,"lng":-0.106362},{"id":"Q4950627","name":"Bow Creek Ecology Park","lat":51.5121,"lng":0.0034},{"id":"Q4961498","name":"Brent Park","lat":51.5849,"lng":-0.2114},{"id":"Q3716204","name":"Dulwich Park","lat":51.445853,"lng":-0.078734},{"id":"Q7294001","name":"Raphael Park","lat":51.589,"lng":0.19},{"id":"Q5329863","name":"Eastcote House Gardens","lat":51.5867,"lng":-0.402222},{"id":"Q5337965","name":"Edgwarebury Park","lat":51.6251,"lng":-0.2828},{"id":"Q6670186","name":"London Butterfly House","lat":51.4786,"lng":-0.317017},{"id":"Q5906819","name":"Horton Country Park","lat":51.3542,"lng":-0.2894},{"id":"Q5913296","name":"Hounslow Heath","lat":51.456,"lng":-0.389},{"id":"Q7205473","name":"Plumstead Common","lat":51.4808,"lng":0.0852778},{"id":"Q5904179","name":"Hornchurch Country Park","lat":51.539166666,"lng":0.208333333},{"id":"Q6931579","name":"Mudchute Park and Farm","lat":51.4922,"lng":-0.0122222},{"id":"Q4884399","name":"Belmont Open Space","lat":51.647,"lng":-0.157},{"id":"Q4892593","name":"Bermondsey Spa Gardens","lat":51.4949,"lng":-0.0745},{"id":"Q4894499","name":"Bernie Spain Gardens","lat":51.5076,"lng":-0.10925},{"id":"Q7052477","name":"Norman Leddy Memorial Gardens","lat":51.5205,"lng":-0.423},{"id":"Q7057552","name":"Northala Fields","lat":51.5401,"lng":-0.373792},{"id":"Q7060441","name":"Northwick Park","lat":51.575,"lng":-0.3248},{"id":"Q7073587","name":"Oak Hill Park","lat":51.6378,"lng":-0.1549},{"id":"Q7083838","name":"Old Deer Park","lat":51.4692,"lng":-0.31068},{"id":"Q5683822","name":"Havering Country Park","lat":51.6137,"lng":0.1733},{"id":"Q5713573","name":"Hendon Park","lat":51.582,"lng":-0.222},{"id":"Q107492538","name":"Barnet playing field, outdoor gym","lat":51.64055,"lng":-0.19184},{"id":"Q107492591","name":"Calesthenics Outdoor Gym","lat":51.6252942,"lng":-0.28353713},{"id":"Q125662212","name":"Phantom Peak","lat":51.4977,"lng":-0.0451},{"id":"Q6886490","name":"Moat Mount Open Space and Mote End Farm","lat":51.6338,"lng":-0.2526},{"id":"Q7137782","name":"Park Hill Recreation Ground","lat":51.3712,"lng":-0.08924},{"id":"Q5046873","name":"Carshalton Park","lat":51.3616,"lng":-0.16106},{"id":"Q5049457","name":"Cassiobury Park","lat":51.6597,"lng":-0.416667},{"id":"Q7263115","name":"Pymmes Park","lat":51.6155,"lng":-0.0704},{"id":"Q7571157","name":"Southwark Park","lat":51.495,"lng":-0.056},{"id":"Q7241963","name":"Preston Park","lat":51.5706,"lng":-0.302778},{"id":"Q7244465","name":"Princes Park","lat":51.582,"lng":-0.2061},{"id":"Q7245507","name":"Priory Park","lat":51.585,"lng":-0.125},{"id":"Q1070642","name":"Chessington World of Adventures","lat":51.348611111,"lng":-0.316666666},{"id":"Q138010716","name":"Kensington Memorial Park","lat":51.520643,"lng":-0.219846},{"id":"Q138010724","name":"Pinner Memorial Park","lat":51.592698,"lng":-0.384916},{"id":"Q7926695","name":"Victoria Embankment Gardens","lat":51.508,"lng":-0.1224},{"id":"Q7926903","name":"Victoria Park","lat":51.6033,"lng":-0.1838},{"id":"Q8033973","name":"Woolwich Common","lat":51.4765,"lng":0.0539},{"id":"Q7851320","name":"Tudor Sports Ground","lat":51.6569,"lng":-0.1769},{"id":"Q7860200","name":"Tylers Common","lat":51.592,"lng":0.259},{"id":"Q7911047","name":"Valentines Park","lat":51.5706,"lng":0.0711111},{"id":"Q7619437","name":"Stoneyfields Park","lat":51.6247,"lng":-0.2629},{"id":"Q7633480","name":"Sudbrook Park","lat":51.4398,"lng":-0.297111},{"id":"Q7640693","name":"Sunny Hill Park","lat":51.597,"lng":-0.23},{"id":"Q7653475","name":"Swan Lane Open Space","lat":51.6247,"lng":-0.179167},{"id":"Q7501392","name":"Shoreditch Park","lat":51.5348,"lng":-0.087354},{"id":"Q7568043","name":"South Norwood Lake and Grounds","lat":51.407,"lng":-0.074},{"id":"Q7568048","name":"South Norwood Recreation Ground","lat":51.395,"lng":-0.078},{"id":"Q7568141","name":"South Park","lat":51.4692,"lng":-0.193611},{"id":"Q7568143","name":"South Park","lat":51.5566,"lng":0.0915},{"id":"Q5000964","name":"Burton’s Court","lat":51.4883,"lng":-0.159722},{"id":"Q5031295","name":"Canbury Gardens","lat":51.418,"lng":-0.305},{"id":"Q5032722","name":"Cannizaro Park","lat":51.4242,"lng":-0.230833},{"id":"Q5032775","name":"Cannon Hill Common","lat":51.401,"lng":-0.22},{"id":"Q5033406","name":"Canons Park","lat":51.6093,"lng":-0.2884},{"id":"Q5041398","name":"Carlisle Park","lat":51.4219,"lng":-0.365556},{"id":"Q7592310","name":"St Alphage Garden","lat":51.518,"lng":-0.0926},{"id":"Q7594595","name":"St Mary Magdalene Gardens","lat":51.5481,"lng":-0.106667},{"id":"Q7604352","name":"Stationers Park","lat":51.5793,"lng":-0.111552},{"id":"Q7618477","name":"Stoke Newington Common","lat":51.5622,"lng":-0.07},{"id":"Q7709865","name":"Thames Barrier Park","lat":51.5008,"lng":0.0341667},{"id":"Q123763668","name":"Hackney Door park outdoor gym","lat":51.55445,"lng":-0.062383},{"id":"Q6864558","name":"Minet Country Park","lat":51.5092,"lng":-0.402222},{"id":"Q6881040","name":"Mitcham Cricket Green","lat":51.401111111,"lng":-0.167166666},{"id":"Q3312744","name":"Sea Life London Aquarium","lat":51.5019,"lng":-0.118889},{"id":"Q7581017","name":"Springfield Park, Upper Clapton, Hackney","lat":51.571,"lng":-0.058},{"id":"Q4915315","name":"Biota!","lat":51.5031,"lng":0.032},{"id":"Q8007399","name":"William Curtis Ecological Park","lat":51.5044,"lng":-0.0775},{"id":"Q6301839","name":"Jubilee Country Park","lat":51.392,"lng":0.062},{"id":"Q6755193","name":"Marble Hill Park","lat":51.4494,"lng":-0.313333},{"id":"Q7049614","name":"Nonsuch Park","lat":51.3582,"lng":-0.228714},{"id":"Q6390916","name":"Kennington Common","lat":51.483,"lng":-0.107},{"id":"Q6390918","name":"Kennington Park","lat":51.484166666,"lng":-0.108888888},{"id":"Q2446875","name":"Tower menagerie","lat":51.50805556,"lng":-0.07583333},{"id":"Q6411593","name":"King George's Fields (Monken Hadley)","lat":51.6565,"lng":-0.195},{"id":"Q6411595","name":"King George's Park","lat":51.4489,"lng":-0.194167},{"id":"Q7330838","name":"Richmond Green","lat":51.461666666,"lng":-0.306944444},{"id":"Q7330860","name":"Richmond Hill","lat":51.452916666,"lng":-0.299361111},{"id":"Q7357524","name":"Roe Green Park","lat":51.587,"lng":-0.271},{"id":"Q7926994","name":"Victoria Recreation Ground, Barnet","lat":51.6527,"lng":-0.1703},{"id":"Q7371285","name":"Roundwood Park","lat":51.54,"lng":-0.2375},{"id":"Q7158745","name":"Peckham Rye","lat":51.46,"lng":-0.064},{"id":"Q6710385","name":"Lyttelton Playing Fields","lat":51.5836,"lng":-0.1769},{"id":"Q13635531","name":"Grovelands Park","lat":51.6328,"lng":-0.115278},{"id":"Q6475822","name":"Lake Farm Country Park","lat":51.5117,"lng":-0.430556},{"id":"Q6515399","name":"Lee Valley Park","lat":51.666666666,"lng":0},{"id":"Q6531293","name":"Lesnes Abbey Woods","lat":51.4892,"lng":0.128056},{"id":"Q6649816","name":"Little Dorrit's Playground","lat":51.5021,"lng":-0.09357},{"id":"Q14629010","name":"Garden Bridge","lat":51.5096,"lng":-0.113409},{"id":"Q6652596","name":"Little Wormwood Scrubs","lat":51.5236,"lng":-0.2288},{"id":"Q6666303","name":"Lodge Farm Park","lat":51.582,"lng":0.192},{"id":"Q7963731","name":"Walpole Park","lat":51.5111,"lng":-0.307228},{"id":"Q7967303","name":"Wandsworth Common","lat":51.45,"lng":-0.1695},{"id":"Q12404982","name":"Island Gardens","lat":51.4871,"lng":-0.00791667},{"id":"Q12410039","name":"Streatham Common","lat":51.422222222,"lng":-0.124444444},{"id":"Q17986683","name":"Cottenham Park","lat":51.4145,"lng":-0.236946},{"id":"Q7974734","name":"Watling Park","lat":51.6071,"lng":-0.2604},{"id":"Q7985290","name":"West Ham Park","lat":51.5392,"lng":0.0177778},{"id":"Q7985347","name":"West Hendon Playing Fields","lat":51.5781,"lng":-0.2508},{"id":"Q18209254","name":"Boston Manor Park","lat":51.491,"lng":-0.32},{"id":"Q16890202","name":"Charlton Park, Greenwich","lat":51.4805,"lng":0.04392},{"id":"Q16890730","name":"Cranmer Green","lat":51.398,"lng":-0.161},{"id":"Q16894412","name":"Mabley Green","lat":51.5492,"lng":-0.0324},{"id":"Q16897646","name":"Whittington Park","lat":51.562,"lng":-0.129},{"id":"Q16900831","name":"Sue Godfrey Nature Park","lat":51.4795,"lng":-0.0217},{"id":"Q16903328","name":"Whitings Hill Open Space","lat":51.6442,"lng":-0.221111},{"id":"Q15197934","name":"Beam Valley Country Park","lat":51.544,"lng":0.179},{"id":"Q15205114","name":"Brookmill Park","lat":51.470293,"lng":-0.020305},{"id":"Q15205137","name":"Broomfield Park","lat":51.61827,"lng":-0.11761},{"id":"Q15209647","name":"Chigwell Row Wood","lat":51.6166,"lng":0.11176},{"id":"Q8001510","name":"Wildspace Conservation Park","lat":51.5029,"lng":0.195},{"id":"Q20876439","name":"Wormholt Park","lat":51.5102,"lng":-0.2376},{"id":"Q16969126","name":"Harrow Lodge Park","lat":51.5549,"lng":0.193444},{"id":"Q16988371","name":"Dagnam Park","lat":51.61448889,"lng":0.23786111},{"id":"Q16989285","name":"East Sheen Common","lat":51.457,"lng":-0.278},{"id":"Q16991600","name":"Blondin Park","lat":51.4952,"lng":-0.3203},{"id":"Q16993417","name":"Grove Hall Park","lat":51.5297,"lng":-0.018},{"id":"Q17017595","name":"Pesthouse Common, Richmond","lat":51.45972222,"lng":-0.28861111},{"id":"Q18748717","name":"St Anne's Churchyard","lat":51.5124,"lng":-0.1323},{"id":"Q18748775","name":"Syon Park","lat":51.4761,"lng":-0.308},{"id":"Q17514909","name":"Barbican Conservatory","lat":51.5202,"lng":-0.095},{"id":"Q19872370","name":"Cranford Park","lat":51.4432,"lng":-0.37534},{"id":"Q19873464","name":"Garston Park","lat":51.691,"lng":-0.3796},{"id":"Q19874897","name":"King Square Gardens","lat":51.5275,"lng":-0.0988889},{"id":"Q19870824","name":"Ashtead Park","lat":51.308,"lng":-0.287},{"id":"Q18352372","name":"Manor Park","lat":51.3631,"lng":-0.190116},{"id":"Q21585364","name":"Manor House Gardens","lat":51.456,"lng":0.006},{"id":"Q16246295","name":"Darenth Country Park","lat":51.4309,"lng":0.2503},{"id":"Q16246794","name":"Hammersmith Park","lat":51.51,"lng":-0.228},{"id":"Q21008581","name":"Highlands Gardens","lat":51.6483,"lng":-0.1864},{"id":"Q15211941","name":"Crane Park","lat":51.4432,"lng":-0.37534},{"id":"Q15212123","name":"Crystal Palace Park","lat":51.4203,"lng":-0.0705},{"id":"Q15213671","name":"Deptford Park","lat":51.4865146,"lng":-0.0392245},{"id":"Q15217951","name":"Folkestone Gardens","lat":51.4831,"lng":-0.039926},{"id":"Q15218051","name":"Forster Memorial Park","lat":51.430408,"lng":-0.004838},{"id":"Q15221547","name":"Geraldine Mary Harmsworth Park","lat":51.496175,"lng":-0.10988611},{"id":"Q21061532","name":"Rickmansworth Aquadrome","lat":51.6331,"lng":-0.4785},{"id":"Q15241239","name":"Ladywell Fields","lat":51.455795,"lng":-0.018111},{"id":"Q15242353","name":"Lillie Rec","lat":51.48277778,"lng":-0.21777778},{"id":"Q15242406","name":"Linder's Field","lat":51.6315,"lng":0.04306},{"id":"Q15242515","name":"Littleheath Woods","lat":51.3493,"lng":-0.06064},{"id":"Q15252272","name":"Mayesbrook Park","lat":51.5403,"lng":0.1111},{"id":"Q15252307","name":"Mayow Park","lat":51.42986,"lng":-0.049214},{"id":"Q15265044","name":"Pages Wood","lat":51.586,"lng":0.2465},{"id":"Q15265528","name":"Parsloes Park","lat":51.5458,"lng":0.1291},{"id":"Q15265537","name":"Parsons Green (park)","lat":51.473,"lng":-0.2},{"id":"Q25343434","name":"Church Field Gardens","lat":51.57633,"lng":-0.42489},{"id":"Q24022937","name":"Furnival Gardens","lat":51.49055556,"lng":-0.23277778},{"id":"Q24677543","name":"Rickmansworth Park","lat":51.642,"lng":-0.46956},{"id":"Q24677551","name":"Claremont Park","lat":51.35719,"lng":-0.37003},{"id":"Q24677681","name":"The Green","lat":51.60473,"lng":-0.48065},{"id":"Q24677807","name":"Lower Hampton Road","lat":51.41168,"lng":-0.39662},{"id":"Q24677808","name":"Sunbury Park","lat":51.40879,"lng":-0.40924},{"id":"Q22312845","name":"Braeburn Park","lat":51.4453,"lng":0.1722},{"id":"Q23891167","name":"Kew Green","lat":51.48458,"lng":-0.28846},{"id":"Q24677843","name":"Merland Rise Recreational Ground","lat":51.30315,"lng":-0.2305},{"id":"Q24677885","name":"Woodside Park","lat":51.6042,"lng":-0.1108},{"id":"Q24679119","name":"Central Park","lat":51.44025,"lng":0.22001},{"id":"Q24679127","name":"Kensington Palace Green","lat":51.5041,"lng":-0.18905},{"id":"Q27962798","name":"Wandle Park","lat":51.41861111,"lng":-0.18},{"id":"Q24677358","name":"Beverley Park","lat":51.40432,"lng":-0.24616},{"id":"Q24677362","name":"The Highams Park","lat":51.61445,"lng":0.0097},{"id":"Q24677408","name":"South Park","lat":51.36034,"lng":0.04395},{"id":"Q24677414","name":"Eyhurst Park","lat":51.28701,"lng":-0.19052},{"id":"Q24639146","name":"Putney Heath","lat":51.45053,"lng":-0.2326},{"id":"Q24651679","name":"Clapton Park","lat":51.55,"lng":-0.033333333},{"id":"Q24673944","name":"Cator Park","lat":51.414027777,"lng":-0.039888888},{"id":"Q24677098","name":"Raspberry Hall Park","lat":51.33248,"lng":0.17917},{"id":"Q24677101","name":"Dartford Heath","lat":51.4357,"lng":0.18927},{"id":"Q24677151","name":"Penton Park","lat":51.40796,"lng":-0.49764},{"id":"Q24677291","name":"Woburn Park","lat":51.3782,"lng":-0.47888},{"id":"Q30588144","name":"Shoulder of Mutton Green","lat":51.4658,"lng":0.0927},{"id":"Q30512329","name":"Fordham Park","lat":51.4772322,"lng":-0.0362544},{"id":"Q47351213","name":"Winsford Gardens","lat":51.409611,"lng":-0.056479},{"id":"Q47517345","name":"Hewitt's Chalk Bank","lat":51.346,"lng":0.124},{"id":"Q47517346","name":"Kemsing Down","lat":51.313,"lng":0.223},{"id":"Q48817467","name":"Fackenden Down","lat":51.323,"lng":0.196},{"id":"Q38672423","name":"Norman Park","lat":51.3879977,"lng":0.0262669},{"id":"Q42291387","name":"Downham Fields","lat":51.4266,"lng":0.0071},{"id":"Q42291400","name":"Oakwood Park, Enfield","lat":51.641,"lng":-0.121},{"id":"Q55076687","name":"Max Roach Park","lat":51.466776,"lng":-0.111772},{"id":"Q55099085","name":"Polhill Bank","lat":51.324,"lng":0.166},{"id":"Q55099199","name":"Longfield Chalk Bank","lat":51.4,"lng":0.296},{"id":"Q55099200","name":"Rectory Meadow","lat":51.393,"lng":0.303},{"id":"Q64873773","name":"Vauxhall Park","lat":51.483,"lng":-0.122},{"id":"Q65042339","name":"Leyton Jubilee Park","lat":51.563,"lng":-0.024},{"id":"Q65066187","name":"Cathnor Park","lat":51.5026,"lng":-0.2367},{"id":"Q65090317","name":"St. Raphael's Edible Garden","lat":51.548781,"lng":-0.267024},{"id":"Q67895212","name":"Holland Park","lat":51.5034,"lng":-0.2047},{"id":"Q96679542","name":"Stepney Green Park","lat":51.5179,"lng":-0.0475},{"id":"Q97189986","name":"Lammas Park","lat":51.504166666,"lng":-0.311944444},{"id":"Q107290954","name":"Castle Bar Park","lat":51.522543,"lng":-0.330823},{"id":"Q107294508","name":"Drayton Green","lat":51.515463,"lng":-0.326816},{"id":"Q107299138","name":"Tabard Gardens","lat":51.49861,"lng":-0.089167},{"id":"Q105834552","name":"Millers Pond","lat":51.373055555,"lng":-0.034444444},{"id":"Q105883530","name":"Brunswick Park","lat":51.475503,"lng":-0.085535645},{"id":"Q106880876","name":"Red Cross Garden, Southwark","lat":51.5031,"lng":-0.0946},{"id":"Q106928660","name":"Roding Valley recreation ground","lat":51.6368331,"lng":0.067561},{"id":"Q97571920","name":"Brook Farm Open Space","lat":51.634867,"lng":-0.181368},{"id":"Q60756067","name":"Stokes Field","lat":51.379,"lng":-0.325},{"id":"Q60756083","name":"West End Common","lat":51.354,"lng":-0.389},{"id":"Q60255178","name":"Howell Hill","lat":51.342,"lng":-0.224},{"id":"Q60255184","name":"Hill Park, Tatsfield","lat":51.284,"lng":-0.039},{"id":"Q60255305","name":"Shabden Park","lat":51.292,"lng":-0.175},{"id":"Q60255392","name":"The Forest and the Highlands","lat":51.285,"lng":-0.431},{"id":"Q111577136","name":"Memorial Garden, Bromley-by-Bow Gasworks","lat":51.5234,"lng":-0.0042},{"id":"Q111684778","name":"Church House Gardens","lat":51.4035234,"lng":0.0123263},{"id":"Q105474503","name":"Meath Gardens","lat":51.527,"lng":-0.044},{"id":"Q105561291","name":"Archbishop's Park","lat":51.497,"lng":-0.116},{"id":"Q111943019","name":"Brimmington Park","lat":51.478055555,"lng":-0.055833333},{"id":"Q111955145","name":"Horn Park","lat":51.443,"lng":0.026},{"id":"Q59186191","name":"Lewis Cubitt Park, Kings Cross","lat":51.537777,"lng":-0.125447},{"id":"Q60754836","name":"Blanchman's Farm","lat":51.305,"lng":-0.052},{"id":"Q60754867","name":"Claygate Common","lat":51.354,"lng":-0.336},{"id":"Q60755532","name":"Hogsmill LNR","lat":51.361,"lng":-0.268},{"id":"Q60755845","name":"Nore Hill Pinnacle","lat":51.3,"lng":-0.025},{"id":"Q60755857","name":"River Mole LNR","lat":51.292,"lng":-0.338},{"id":"Q107570819","name":"Old Paradise Gardens","lat":51.4934,"lng":-0.119},{"id":"Q107643280","name":"St. Andrew's Park","lat":51.563487,"lng":0.229014},{"id":"Q60042680","name":"Manor Farm, Surrey","lat":51.329,"lng":-0.468},{"id":"Q60255006","name":"Dollypers Hill","lat":51.31,"lng":-0.115},{"id":"Q60255018","name":"Fames Rough","lat":51.302,"lng":-0.187},{"id":"Q60255097","name":"Priest Hill","lat":51.339,"lng":-0.236},{"id":"Q60255163","name":"Ledgers Wood","lat":51.315,"lng":-0.027},{"id":"Q115694022","name":"Cotelands","lat":51.371111111,"lng":-0.088611111},{"id":"Q107451920","name":"Waddon Ponds","lat":51.37049866,"lng":-0.12025799},{"id":"Q104835340","name":"Shrewsbury Park","lat":51.4746,"lng":0.07851},{"id":"Q104841834","name":"Eltham Common","lat":51.4693,"lng":0.0573},{"id":"Q104870555","name":"Paterson Park","lat":51.489,"lng":-0.068},{"id":"Q104871965","name":"Nursery Row Park","lat":51.49023,"lng":-0.09104},{"id":"Q104876527","name":"Hilly Fields, Lewisham","lat":51.46,"lng":-0.025},{"id":"Q121461269","name":"Sir John McDougall Gardens","lat":51.496944444,"lng":-0.026666666},{"id":"Q106485572","name":"Larkhall Park","lat":51.473355,"lng":-0.131028},{"id":"Q104325296","name":"Eaglesfield Park","lat":51.4708,"lng":0.0705},{"id":"Q114526967","name":"Lloyd Park","lat":51.5924,"lng":-0.021},{"id":"Q114724049","name":"Gunpowder Park","lat":51.673078856,"lng":-0.004087188},{"id":"Q121888157","name":"Millfields Park","lat":51.56017,"lng":-0.04899},{"id":"Q85752446","name":"Cigarette Island Park","lat":51.4021,"lng":-0.3411},{"id":"Q106128633","name":"O. R. Tambo Recreation Ground","lat":51.60219,"lng":-0.13349},{"id":"Q114840389","name":"Shepherdess Walk Park","lat":51.532138,"lng":-0.093967},{"id":"Q115910478","name":"Beddington Park","lat":51.371944444,"lng":-0.144166666},{"id":"Q115184182","name":"Fairlop Waters","lat":51.5956,"lng":0.1017},{"id":"Q122285512","name":"Haynes Park","lat":51.5769,"lng":0.215},{"id":"Q122361346","name":"Inwood Park","lat":51.46765,"lng":-0.355232},{"id":"Q126947389","name":"Abbey Wood Park","lat":51.49455,"lng":0.10903},{"id":"Q124660303","name":"Bruce Castle Park","lat":51.599913512,"lng":-0.074458122},{"id":"Q129102461","name":"Marcus Garvey Park","lat":51.494539,"lng":-0.209476},{"id":"Q129264285","name":"St Paul's Gardens","lat":51.493148,"lng":-0.215524},{"id":"Q116917130","name":"Coney Hall Recreation Ground","lat":51.3673358,"lng":-0.0021878},{"id":"Q125906932","name":"Long Meadow","lat":51.426758531,"lng":-0.084761084},{"id":"Q130212629","name":"Waring Park","lat":51.431524,"lng":0.110394},{"id":"Q117203148","name":"Ealing Green","lat":51.50999,"lng":-0.30571},{"id":"Q130235424","name":"Frank Banfield Park","lat":51.488126,"lng":-0.223714},{"id":"Q130235448","name":"Imperial Park","lat":51.471025,"lng":-0.183223},{"id":"Q130235474","name":"William Parnell Park","lat":51.473553,"lng":-0.189141},{"id":"Q134083725","name":"Bethnal Green Gardens","lat":51.525861,"lng":-0.054181},{"id":"Q118779797","name":"Keir Hardie Park","lat":51.51192,"lng":0.01585},{"id":"Q124464144","name":"Elmstead Wood","lat":51.422,"lng":0.042},{"id":"Q3350877","name":"Altab Ali Park","lat":51.5162,"lng":-0.0685},{"id":"Q3680838","name":"Clissold Park","lat":51.561111111,"lng":-0.088055555},{"id":"Q4972915","name":"Brockwell Park","lat":51.4508,"lng":-0.1075},{"id":"Q137538126","name":"Palewell Park","lat":51.4589,"lng":-0.2602},{"id":"Q137571738","name":"Terrace and Buccleuch Gardens","lat":51.4536,"lng":-0.3009},{"id":"Q135944725","name":"Castle Hill Park","lat":51.438736685,"lng":0.313771562},{"id":"Q5167608","name":"Coombe Wood","lat":51.36233,"lng":-0.0683},{"id":"Q5187511","name":"Croham Hurst","lat":51.3509,"lng":-0.0773194},{"id":"Q977947","name":"Vauxhall Gardens","lat":51.48667,"lng":-0.12183},{"id":"Q131169955","name":"Loxford Park","lat":51.548333,"lng":0.081325},{"id":"Q138010708","name":"King George V Park","lat":51.513596,"lng":0.040288},{"id":"Q7061643","name":"Norwood Park","lat":51.425,"lng":-0.0938889},{"id":"Q7074216","name":"Oaks Park","lat":51.3333,"lng":-0.166667},{"id":"Q20164640","name":"Radnor Gardens","lat":51.4406,"lng":-0.3321},{"id":"Q18748738","name":"Potters Fields Park","lat":51.5042,"lng":-0.0786},{"id":"Q7296505","name":"Ravenscourt Park","lat":51.497,"lng":-0.2385},{"id":"Q138656610","name":"Headstone Manor Recreation Ground","lat":51.593224,"lng":-0.356648},{"id":"Q138505087","name":"Barnard Park","lat":51.537056396,"lng":-0.11131961},{"id":"Q6386508","name":"Kelsey Park","lat":51.402,"lng":-0.023},{"id":"Q6781672","name":"Maryon Park","lat":51.489,"lng":0.043},{"id":"Q6781675","name":"Maryon Wilson Park","lat":51.4847,"lng":0.0431},{"id":"Q6858336","name":"Mill Hill Park","lat":51.613,"lng":-0.239},{"id":"Q6411109","name":"King's Stairs Gardens","lat":51.50027778,"lng":-0.05722222},{"id":"Q6411473","name":"King Edward Memorial Park","lat":51.509,"lng":-0.049},{"id":"Q137738085","name":"King George V Playing Fields","lat":51.641736,"lng":-0.418976},{"id":"Q137738101","name":"Oxhey Park","lat":51.646275,"lng":-0.386863},{"id":"Q137738159","name":"Woodside Playing Fields","lat":51.693394,"lng":-0.39173},{"id":"Q137925251","name":"Pimlico Gardens","lat":51.4856,"lng":-0.1335},{"id":"Q15198760","name":"Betts Park","lat":51.4089,"lng":-0.0647},{"id":"Q7967265","name":"Wandle Park","lat":51.3744,"lng":-0.1113},{"id":"Q7967312","name":"Wandsworth Park","lat":51.4623,"lng":-0.2043},{"id":"Q7974321","name":"Waterlow Park","lat":51.569,"lng":-0.145},{"id":"Q429540","name":"Victoria Park","lat":51.537,"lng":-0.038},{"id":"Q1453189","name":"Finsbury Park","lat":51.5712,"lng":-0.1009},{"id":"Q16891395","name":"Foxley Wood","lat":51.328,"lng":-0.114},{"id":"Q16892551","name":"Hylands Park","lat":51.5709,"lng":0.2005},{"id":"Q16892969","name":"Joseph Grimaldi Park","lat":51.531944444,"lng":-0.115},{"id":"Q16900954","name":"Sutcliffe Park","lat":51.455,"lng":0.029},{"id":"Q5580119","name":"Golders Hill Park","lat":51.567,"lng":-0.189},{"id":"Q5601476","name":"Greatfields Park","lat":51.531,"lng":0.09},{"id":"Q5604119","name":"Greenhill Gardens","lat":51.6446,"lng":-0.1824},{"id":"Q5611428","name":"Grove Park","lat":51.3667,"lng":-0.1625},{"id":"Q5637359","name":"Hackney Downs","lat":51.5553,"lng":-0.0613889},{"id":"Q5653137","name":"Happy Valley Park","lat":51.2956,"lng":-0.115443},{"id":"Q16986449","name":"Cedars Park","lat":51.691666666,"lng":-0.041388888},{"id":"Q16987717","name":"Bethune Park","lat":51.6196,"lng":-0.15236},{"id":"Q15260097","name":"Mountsfield Park","lat":51.447,"lng":-0.009},{"id":"Q15260498","name":"Myatt's Fields Park","lat":51.47333333,"lng":-0.10333333},{"id":"Q15275967","name":"Selsdon Wood","lat":51.3383,"lng":-0.0463},{"id":"Q59818439","name":"Christchurch Gardens","lat":51.498027,"lng":-0.134578},{"id":"Q86750678","name":"Norwood Grove","lat":51.41790009,"lng":-0.11501259},{"id":"Q7380961","name":"Ruskin Park","lat":51.4647,"lng":-0.093729},{"id":"Q7659786","name":"Sydenham Wells Park","lat":51.4287,"lng":-0.068342},{"id":"Q109918085","name":"Cator Park","lat":51.461,"lng":0.026},{"id":"Q110621564","name":"Northbrook Park","lat":51.442,"lng":0.014},{"id":"Q47001774","name":"Avondale Park","lat":51.5102,"lng":-0.2125},{"id":"Q48698904","name":"Long Lane Wood","lat":51.3904,"lng":-0.0527},{"id":"Q2920346","name":"Wimbledon Park","lat":51.4361,"lng":-0.2074},{"id":"Q2975448","name":"Clapham Common","lat":51.4578,"lng":-0.1494},{"id":"Q106610288","name":"Leader's Gardens","lat":51.468136,"lng":-0.2229805},{"id":"Q134389669","name":"Ferranti Park","lat":51.4797,"lng":-0.0208},{"id":"Q134572092","name":"Coronation Gardens","lat":51.58139,"lng":0.18525},{"id":"Q90838485","name":"Roxbourne Park","lat":51.57589,"lng":-0.381775},{"id":"Q63491467","name":"Lloyd Park","lat":51.364,"lng":-0.07945},{"id":"Q126919147","name":"Lyle Park","lat":51.500388,"lng":0.023775},{"id":"Q138195296","name":"Eden Dock","lat":51.5037,"lng":-0.02},{"id":"Q270263","name":"London Zoo","lat":51.535555555,"lng":-0.155833333},{"id":"Q115697882","name":"Kings Wood","lat":51.32756,"lng":-0.06174},{"id":"Q115689146","name":"Canterbury Road Recreation Ground","lat":51.384421,"lng":-0.117296},{"id":"Q115689148","name":"Chaldon Way Gardens","lat":51.313281,"lng":-0.134384},{"id":"Q115689152","name":"Coulsdon Memorial Ground","lat":51.315003,"lng":-0.134379},{"id":"Q115694727","name":"Foxes Wood","lat":51.368448,"lng":-0.041376},{"id":"Q115694736","name":"Haling Grove","lat":51.352671,"lng":-0.103735},{"id":"Q115694740","name":"Hawkhirst","lat":51.31602,"lng":-0.0913},{"id":"Q115697898","name":"Kenley Common","lat":51.31076,"lng":-0.09132},{"id":"Q115697914","name":"King George's Field","lat":51.387186,"lng":-0.090219},{"id":"Q97502368","name":"Camden Gardens","lat":51.542321,"lng":-0.141637},{"id":"Q56757815","name":"Battersea Park Children's Zoo","lat":51.481695995,"lng":-0.156706643},{"id":"Q56856819","name":"Golders Hill Park Zoo","lat":51.566852269,"lng":-0.18893844},{"id":"Q56857421","name":"Hanwell Zoo","lat":51.512267,"lng":-0.347834},{"id":"Q57027455","name":"Hobbledown","lat":51.347058,"lng":-0.289691},{"id":"Q5639399","name":"Hainault Forest","lat":51.6217,"lng":0.129167},{"id":"Q7438860","name":"Scratchwood","lat":51.64,"lng":-0.264},{"id":"Q7568045","name":"South Norwood Country Park","lat":51.396388888,"lng":-0.056666666},{"id":"Q84042267","name":"Eagle Heights Wildlife Foundation","lat":51.369525,"lng":0.192566},{"id":"Q106609764","name":"Putney Pocket Park","lat":51.462326,"lng":-0.221469},{"id":"Q117344151","name":"Hornfair Park","lat":51.475662,"lng":0.042411},{"id":"Q116453173","name":"Milne Park","lat":51.337282,"lng":-0.008607},{"id":"Q116453175","name":"Norbury Hall Park","lat":51.407023,"lng":-0.118092},{"id":"Q116453176","name":"Norbury Park","lat":51.413036,"lng":-0.118925},{"id":"Q116453186","name":"Purley Beeches","lat":51.341638,"lng":-0.092375},{"id":"Q116453187","name":"Purley Way Playing Fields","lat":51.3531,"lng":-0.11124},{"id":"Q116453237","name":"Rotary Field","lat":51.342268,"lng":-0.11219},{"id":"Q116453245","name":"Shirley Church Recreation Ground","lat":51.370897,"lng":-0.047219},{"id":"Q116453246","name":"Shirley Heath","lat":51.364895,"lng":-0.028764},{"id":"Q116453248","name":"South Croydon Recreation Ground","lat":51.349577,"lng":-0.097886},{"id":"Q116453252","name":"Stambourne Woodland Walk","lat":51.414103,"lng":-0.079592},{"id":"Q116453257","name":"The Lawns","lat":51.411166,"lng":-0.091227},{"id":"Q116453259","name":"Thornton Heath Recreation Ground","lat":51.401769,"lng":-0.108147},{"id":"Q116453261","name":"Threehalfpenny Wood","lat":51.366321,"lng":-0.024666},{"id":"Q116453263","name":"Upper Norwood Recreation Ground","lat":51.417293,"lng":-0.092343},{"id":"Q116453264","name":"Westow Park","lat":51.416559,"lng":-0.084811},{"id":"Q116453265","name":"Wettern Tree Garden","lat":51.343751,"lng":-0.093395},{"id":"Q116453266","name":"Whitehorse Meadow","lat":51.400006,"lng":-0.088424},{"id":"Q116453267","name":"Whitehorse Road Recreation Ground","lat":51.389894,"lng":-0.09598},{"id":"Q116453270","name":"Woodcote Village Green","lat":51.334541,"lng":-0.137436},{"id":"Q116455496","name":"Pollards Hill Park","lat":51.40314,"lng":-0.126677},{"id":"Q12060052","name":"High Elms Country Park","lat":51.351,"lng":0.075},{"id":"Q15213612","name":"Denham Country Park","lat":51.57281,"lng":-0.48335},{"id":"Q16987677","name":"Bedfont Lakes Country Park","lat":51.443,"lng":-0.449},{"id":"Q17022320","name":"Stanmore Country Park","lat":51.6218,"lng":-0.30698},{"id":"Q20005754","name":"Chiswick Park","lat":51.495,"lng":-0.275},{"id":"Q2485117","name":"Victoria Tower Gardens","lat":51.4969,"lng":-0.125},{"id":"Q932992","name":"Grosvenor Square","lat":51.511388888,"lng":-0.151388888},{"id":"Q134487491","name":"Tripes Farm","lat":51.3727099,"lng":0.1241955},{"id":"Q136261367","name":"Graham Street Park","lat":51.532,"lng":-0.098},{"id":"Q132528212","name":"Thorney Country Park","lat":51.50064,"lng":-0.49305},{"id":"Q4442801","name":"Stockley Park","lat":51.51,"lng":-0.444},{"id":"Q124650480","name":"Willow's Birds of Prey & Wildlife Trail","lat":51.315572677,"lng":0.115539947},{"id":"Q95080820","name":"Brenchley Gardens","lat":51.4517,"lng":-0.0542},{"id":"Q3661835","name":"Parkland Walk","lat":51.5742,"lng":-0.1245}]}
