{"category":"mountain","source":"wikidata","bbox":{"south":53.24,"west":-6.45,"north":53.43,"east":-6.07},"places":[{"id":"Q3381390","name":"Ben of Howth","lat":53.373188888,"lng":-6.070019444},{"id":"Q3140126","name":"Three Rock","lat":53.245277777,"lng":-6.239166666},{"id":"Q3072983","name":"Montpelier Hill","lat":53.251861111,"lng":-6.330344444},{"id":"Q6408004","name":"Kilmashogue","lat":53.250558333,"lng":-6.267230555},{"id":"Q7496202","name":"Shielmartin Hill","lat":53.373363888,"lng":-6.083422222},{"id":"Q26718577","name":"Slievenabawnoge","lat":53.242777777,"lng":-6.382777777},{"id":"Q26718578","name":"Verschoyles Hill","lat":53.2625,"lng":-6.43611},{"id":"Q26718579","name":"Knockannavea","lat":53.2503,"lng":-6.4136}]}
