{"category":"rail_station","source":"wikidata","bbox":{"south":53.24,"west":-6.45,"north":53.43,"east":-6.07},"places":[{"id":"Q3969804","name":"Howth Junction & Donaghmede railway station","lat":53.3912,"lng":-6.1559},{"id":"Q2377845","name":"Dublin Heuston railway station","lat":53.346451,"lng":-6.292662},{"id":"Q3969552","name":"Dún Laoghaire railway station","lat":53.2949,"lng":-6.1345},{"id":"Q5041399","name":"Carlisle Pier","lat":53.295062,"lng":-6.130345},{"id":"Q3968799","name":"Docklands railway station","lat":53.350628,"lng":-6.239355},{"id":"Q3969798","name":"Howth railway station","lat":53.389,"lng":-6.0742},{"id":"Q634947","name":"Drumcondra railway station","lat":53.3631,"lng":-6.2585},{"id":"Q2003583","name":"Kilbarrack railway station","lat":53.3872,"lng":-6.1614},{"id":"Q2003842","name":"Lansdowne Road railway station","lat":53.33382,"lng":-6.22914},{"id":"Q2004945","name":"Tara Street railway station","lat":53.3468,"lng":-6.25414},{"id":"Q2397711","name":"Sydney Parade railway station","lat":53.3208,"lng":-6.2115},{"id":"Q2543742","name":"Dublin Connolly railway station","lat":53.351388888,"lng":-6.249722222},{"id":"Q2658249","name":"Dublin Pearse railway station","lat":53.3433347,"lng":-6.2484634},{"id":"Q2979578","name":"Clontarf Road railway station","lat":53.3631,"lng":-6.227},{"id":"Q3196643","name":"Killester railway station","lat":53.372778,"lng":-6.205},{"id":"Q3417567","name":"Raheny railway station","lat":53.3815,"lng":-6.1767},{"id":"Q3969060","name":"Blackrock railway station","lat":53.30297,"lng":-6.17891},{"id":"Q3969079","name":"Booterstown railway station","lat":53.3099,"lng":-6.19541},{"id":"Q3968919","name":"Ashtown railway station","lat":53.375,"lng":-6.333},{"id":"Q3969012","name":"Bayside railway station","lat":53.3915,"lng":-6.1368},{"id":"Q3970569","name":"Portmarnock railway station","lat":53.4175,"lng":-6.151},{"id":"Q3971065","name":"Sutton railway station","lat":53.392,"lng":-6.11628},{"id":"Q3113542","name":"Grand Canal Dock railway station","lat":53.33961,"lng":-6.23771},{"id":"Q3127545","name":"Harmonstown railway station","lat":53.3785,"lng":-6.1922},{"id":"Q3970858","name":"Sandycove and Glasthule railway station","lat":53.2875,"lng":-6.1275},{"id":"Q3970859","name":"Sandymount railway station","lat":53.32795,"lng":-6.22138},{"id":"Q3970774","name":"Salthill and Monkstown railway station","lat":53.2953,"lng":-6.1522},{"id":"Q3970288","name":"Navan Road Parkway railway station","lat":53.3776,"lng":-6.3454},{"id":"Q3969866","name":"Killiney railway station","lat":53.2554,"lng":-6.1131},{"id":"Q3969868","name":"Kishoge railway station","lat":53.334478,"lng":-6.430399},{"id":"Q3969773","name":"Hansfield railway station","lat":53.3871,"lng":-6.4421},{"id":"Q3969330","name":"Castleknock railway station","lat":53.381527,"lng":-6.371468},{"id":"Q3969737","name":"Glenageary railway station","lat":53.281389,"lng":-6.123889},{"id":"Q3969412","name":"Christchurch railway station, Dublin","lat":53.34444444,"lng":-6.27138889},{"id":"Q3969396","name":"Park West and Cherry Orchard railway station","lat":53.334993,"lng":-6.364687},{"id":"Q3969479","name":"Coolmine railway station","lat":53.3775,"lng":-6.3914},{"id":"Q3969438","name":"Clondalkin/Fonthill railway station","lat":53.3334,"lng":-6.4062},{"id":"Q3969439","name":"Clongriffin railway station","lat":53.403191,"lng":-6.149107},{"id":"Q3969440","name":"Clonsilla railway station","lat":53.383,"lng":-6.423},{"id":"Q3970937","name":"Seapoint railway station","lat":53.2991567,"lng":-6.1652434},{"id":"Q3969514","name":"Dalkey railway station","lat":53.275833,"lng":-6.103611},{"id":"Q4850463","name":"Baldoyle railway station","lat":53.3976,"lng":-6.1505},{"id":"Q4972306","name":"Broadstone (Dublin) railway station","lat":53.354291,"lng":-6.273816},{"id":"Q5135085","name":"Clontarf railway station","lat":53.367016051,"lng":-6.21948322},{"id":"Q6545564","name":"Liffey Junction","lat":53.371038,"lng":-6.291904},{"id":"Q28197638","name":"Merrion railway station","lat":53.31574,"lng":-6.20425},{"id":"Q43401046","name":"North Wall railway station","lat":53.347,"lng":-6.237},{"id":"Q85792690","name":"Pelletstown railway station","lat":53.3755484,"lng":-6.3168947},{"id":"Q85850679","name":"Glasnevin railway station","lat":53.3649,"lng":-6.271},{"id":"Q120847951","name":"Foxrock railway station","lat":53.267,"lng":-6.185},{"id":"Q139120230","name":"Spencer Dock railway station","lat":53.34908,"lng":-6.23704},{"id":"Q138749230","name":"Blanchardstown railway station","lat":53.382352,"lng":-6.363774}]}
