{"metroId":"chicago","feedOnestopId":"f-dp3-cta","builtAt":"2026-07-11T15:16:56.751Z","stops":[{"id":"1","name":"Jackson & Austin Terminal","lat":41.87632969,"lng":-87.77411061},{"id":"2","name":"5900 W Jackson","lat":41.87707463,"lng":-87.77132373},{"id":"4","name":"5700 W Jackson","lat":41.8769922,"lng":-87.76826417},{"id":"6","name":"Jackson & Lotus","lat":41.87652085,"lng":-87.76145179},{"id":"7","name":"5351 W Jackson","lat":41.87655982,"lng":-87.75893123},{"id":"8","name":"Jackson & Lockwood","lat":41.87657185,"lng":-87.75731879},{"id":"9","name":"Jackson & Laramie","lat":41.87660248,"lng":-87.75462104},{"id":"10","name":"Jackson & Leamington","lat":41.8766342,"lng":-87.75317419},{"id":"11","name":"5047 W Jackson","lat":41.87665915,"lng":-87.75128834},{"id":"12","name":"Jackson & Lavergne","lat":41.87667615,"lng":-87.74884301},{"id":"13","name":"4849 W Jackson","lat":41.87669677,"lng":-87.74702316},{"id":"14","name":"Jackson & Cicero","lat":41.87677098,"lng":-87.74483644},{"id":"15","name":"Jackson & Kilpatrick","lat":41.8768376,"lng":-87.74255479},{"id":"16","name":"Jackson & Kenton","lat":41.87684143,"lng":-87.74059103},{"id":"18","name":"Jackson & Kilbourn","lat":41.87689357,"lng":-87.73761999},{"id":"19","name":"Jackson & Kostner","lat":41.87692282,"lng":-87.7351646},{"id":"20","name":"Jackson & Kildare","lat":41.87694085,"lng":-87.73265578},{"id":"21","name":"Jackson & Keeler","lat":41.87697085,"lng":-87.73020578},{"id":"22","name":"Jackson & Karlov","lat":41.87701444,"lng":-87.72781365},{"id":"23","name":"Jackson & Pulaski","lat":41.87704788,"lng":-87.725335},{"id":"24","name":"Jackson & Springfield","lat":41.8770764,"lng":-87.72296018},{"id":"25","name":"Jackson & Hamlin","lat":41.8770885,"lng":-87.72083241},{"id":"26","name":"Jackson & Central Park","lat":41.87714967,"lng":-87.71548297},{"id":"27","name":"Jackson & St. Louis","lat":41.87718885,"lng":-87.71324677},{"id":"29","name":"Jackson & Spaulding","lat":41.87723901,"lng":-87.70828241},{"id":"30","name":"Jackson & Kedzie","lat":41.87726589,"lng":-87.7057797},{"id":"31","name":"Jackson & Albany","lat":41.87729585,"lng":-87.70332877},{"id":"32","name":"Jackson & Sacramento","lat":41.87732585,"lng":-87.70087277},{"id":"34","name":"Jackson & California","lat":41.87737867,"lng":-87.69596091},{"id":"36","name":"2609 W Jackson","lat":41.87743145,"lng":-87.6916633},{"id":"38","name":"Jackson & Western","lat":41.87749727,"lng":-87.68603149},{"id":"39","name":"Jackson & Oakley","lat":41.87750385,"lng":-87.68365776},{"id":"40","name":"Jackson & Leavitt","lat":41.87755181,"lng":-87.6812767},{"id":"41","name":"Jackson & Hoyne","lat":41.87740287,"lng":-87.67874163},{"id":"42","name":"Jackson & Damen","lat":41.87742885,"lng":-87.67667812},{"id":"44","name":"Damen & Congress","lat":41.87514532,"lng":-87.67664815},{"id":"48","name":"Harrison & Wood","lat":41.87406685,"lng":-87.67133976},{"id":"51","name":"Ashland & Van Buren","lat":41.87655943,"lng":-87.66652097},{"id":"52","name":"Malcolm X College","lat":41.87744033,"lng":-87.67484661},{"id":"53","name":"Jackson & Ogden","lat":41.87749518,"lng":-87.67104307},{"id":"54","name":"Jackson & Paulina","lat":41.87753226,"lng":-87.66899623},{"id":"55","name":"Jackson & Ashland","lat":41.87756252,"lng":-87.66689641},{"id":"56","name":"Jackson & Laflin","lat":41.87759785,"lng":-87.66407376},{"id":"57","name":"Jackson & Loomis","lat":41.87764185,"lng":-87.66165776},{"id":"59","name":"Jackson & Racine","lat":41.87773716,"lng":-87.65678492},{"id":"60","name":"Jackson & Aberdeen","lat":41.87775885,"lng":-87.65434376},{"id":"61","name":"Jackson & Morgan","lat":41.87781483,"lng":-87.65170444},{"id":"63","name":"Jackson & Peoria","lat":41.87785604,"lng":-87.64946649},{"id":"64","name":"Jackson & Halsted","lat":41.87789765,"lng":-87.64697233},{"id":"65","name":"Jackson & Desplaines","lat":41.87793472,"lng":-87.6437564},{"id":"67","name":"Jackson & Canal","lat":41.87800485,"lng":-87.63978175},{"id":"68","name":"Jackson & Franklin","lat":41.87805885,"lng":-87.63540675},{"id":"69","name":"Jackson & Financial Place","lat":41.87808885,"lng":-87.63287375},{"id":"70","name":"Jackson & Dearborn","lat":41.87812885,"lng":-87.62947275},{"id":"71","name":"Jackson & State","lat":41.87814885,"lng":-87.62790475},{"id":"72","name":"Jackson & Wabash","lat":41.87821585,"lng":-87.62575775},{"id":"73","name":"Michigan & Van Buren/Ida B. Wells","lat":41.87627885,"lng":-87.62440175},{"id":"74","name":"Congress Plaza & Michigan","lat":41.87486595,"lng":-87.62355688},{"id":"75","name":"Michigan & Van Buren","lat":41.87669785,"lng":-87.62416575},{"id":"76","name":"Michigan & Jackson","lat":41.87814285,"lng":-87.62419875},{"id":"77","name":"Adams & Wabash","lat":41.87958285,"lng":-87.62588975},{"id":"80","name":"Adams & Wells","lat":41.87943385,"lng":-87.63402975},{"id":"84","name":"Van Buren & Canal","lat":41.87683533,"lng":-87.63938621},{"id":"88","name":"Van Buren & Halsted","lat":41.87673385,"lng":-87.64705376},{"id":"89","name":"Van Buren & Peoria","lat":41.87668985,"lng":-87.64940675},{"id":"92","name":"Van Buren & Aberdeen","lat":41.87662473,"lng":-87.65441295},{"id":"93","name":"Van Buren & Racine","lat":41.87658368,"lng":-87.65680927},{"id":"96","name":"Van Buren & Laflin","lat":41.8764545,"lng":-87.66410593},{"id":"97","name":"Van Buren & Ashland","lat":41.87641733,"lng":-87.66647663},{"id":"99","name":"Van Buren & Ogden","lat":41.87633688,"lng":-87.67188223},{"id":"100","name":"1900 W Van Buren","lat":41.87624985,"lng":-87.67406276},{"id":"101","name":"Van Buren & Damen","lat":41.87624785,"lng":-87.67607776},{"id":"103","name":"Harrison & Paulina","lat":41.87421785,"lng":-87.66897576},{"id":"107","name":"Harrison & Ogden","lat":41.87414935,"lng":-87.67455277},{"id":"108","name":"Harrison & Damen","lat":41.87411719,"lng":-87.67632629},{"id":"111","name":"Damen & Jackson","lat":41.87741727,"lng":-87.67635712},{"id":"118","name":"Jackson & Rockwell","lat":41.87756679,"lng":-87.69097654},{"id":"119","name":"Jackson & Washtenaw","lat":41.87753288,"lng":-87.69403808},{"id":"120","name":"Jackson & California","lat":41.8775037,"lng":-87.69648924},{"id":"122","name":"Jackson & Sacramento","lat":41.87745114,"lng":-87.70134023},{"id":"123","name":"Jackson & Albany","lat":41.87741767,"lng":-87.70378846},{"id":"124","name":"Jackson & Kedzie","lat":41.87740304,"lng":-87.70628389},{"id":"126","name":"Jackson & Homan","lat":41.877361,"lng":-87.7111231},{"id":"127","name":"Jackson & St. Louis","lat":41.87731351,"lng":-87.71366145},{"id":"128","name":"Central Park & Jackson","lat":41.87702457,"lng":-87.71587528},{"id":"129","name":"Jackson & Hamlin","lat":41.87721835,"lng":-87.7210538},{"id":"130","name":"Jackson & Springfield","lat":41.87717625,"lng":-87.72333069},{"id":"131","name":"Jackson & Pulaski","lat":41.87714451,"lng":-87.72580051},{"id":"132","name":"Jackson & Karlov","lat":41.87711549,"lng":-87.72820129},{"id":"133","name":"Jackson & Keeler","lat":41.87708512,"lng":-87.73065451},{"id":"134","name":"Jackson & Kildare","lat":41.87710235,"lng":-87.73311192},{"id":"135","name":"Jackson & Kostner","lat":41.87702535,"lng":-87.73556149},{"id":"136","name":"Jackson & Kilbourn","lat":41.87699504,"lng":-87.73799678},{"id":"138","name":"Jackson & Kenton","lat":41.87697331,"lng":-87.74070166},{"id":"139","name":"Jackson & Kilpatrick","lat":41.8769345,"lng":-87.7428132},{"id":"140","name":"Jackson & Cicero","lat":41.87686678,"lng":-87.74542476},{"id":"141","name":"4900 W Jackson","lat":41.87682886,"lng":-87.74714481},{"id":"142","name":"Jackson & Lavergne","lat":41.87677894,"lng":-87.74973704},{"id":"143","name":"5056 W Jackson","lat":41.87676513,"lng":-87.75161796},{"id":"144","name":"Jackson & Leamington","lat":41.87673642,"lng":-87.75354107},{"id":"145","name":"Jackson & Laramie","lat":41.87673823,"lng":-87.75524578},{"id":"146","name":"Jackson & Lockwood","lat":41.87668465,"lng":-87.75783513},{"id":"147","name":"5400 W Jackson","lat":41.87665683,"lng":-87.75968403},{"id":"148","name":"Jackson & Lotus","lat":41.87661996,"lng":-87.76155127},{"id":"149","name":"Jackson & Central","lat":41.87661149,"lng":-87.76460404},{"id":"150","name":"5700 W Jackson","lat":41.87717765,"lng":-87.76801871},{"id":"152","name":"Jackson & Mayfield","lat":41.87724593,"lng":-87.77130849},{"id":"153","name":"Harrison & Central Terminal","lat":41.87269084,"lng":-87.76480578},{"id":"154","name":"Harrison & Lotus","lat":41.87281085,"lng":-87.76165979},{"id":"155","name":"5400 W Harrison","lat":41.87290785,"lng":-87.75937279},{"id":"156","name":"Harrison & Lockwood","lat":41.87286285,"lng":-87.75752579},{"id":"157","name":"Harrison & Laramie","lat":41.87289038,"lng":-87.75449681},{"id":"158","name":"Harrison & Leamington","lat":41.87290094,"lng":-87.75319089},{"id":"159","name":"Harrison & Lavergne","lat":41.8730097,"lng":-87.7492141},{"id":"160","name":"Harrison & Cicero","lat":41.87307247,"lng":-87.74515134},{"id":"161","name":"Harrison & Kilpatrick","lat":41.87310685,"lng":-87.74266678},{"id":"162","name":"4630 W Harrison","lat":41.87320585,"lng":-87.74089878},{"id":"163","name":"Harrison & Kolmar","lat":41.87321285,"lng":-87.73949378},{"id":"164","name":"Harrison & Kilbourn","lat":41.87322127,"lng":-87.73795427},{"id":"165","name":"Harrison & Kostner","lat":41.87377219,"lng":-87.73550165},{"id":"166","name":"Kostner & Lexington","lat":41.87163685,"lng":-87.73522878},{"id":"167","name":"Fifth Avenue & Kostner","lat":41.8702706,"lng":-87.73495763},{"id":"168","name":"Fifth Avenue & Kildare","lat":41.87090772,"lng":-87.73270669},{"id":"169","name":"Fifth Avenue & Keeler","lat":41.87160785,"lng":-87.73010778},{"id":"170","name":"Fifth Avenue & Karlov","lat":41.87230485,"lng":-87.72760878},{"id":"171","name":"Fifth Avenue & Pulaski","lat":41.87290333,"lng":-87.72557642},{"id":"172","name":"Harrison & Springfield","lat":41.87342685,"lng":-87.72309278},{"id":"174","name":"Harrison & Independence","lat":41.87346485,"lng":-87.71957078},{"id":"175","name":"Harrison & Lawndale","lat":41.87347685,"lng":-87.71822178},{"id":"177","name":"Harrison & St. Louis","lat":41.87354885,"lng":-87.71333277},{"id":"178","name":"Harrison & Homan","lat":41.87357385,"lng":-87.71088577},{"id":"179","name":"Harrison & Spaulding","lat":41.87360985,"lng":-87.70846677},{"id":"181","name":"Harrison & Albany","lat":41.87365961,"lng":-87.70351956},{"id":"182","name":"Harrison & Sacramento","lat":41.8736976,"lng":-87.70105456},{"id":"183","name":"Harrison & Francisco","lat":41.87372385,"lng":-87.69866677},{"id":"185","name":"Harrison & Washtenaw","lat":41.87376285,"lng":-87.69378477},{"id":"186","name":"Harrison & Maplewood","lat":41.87379285,"lng":-87.69071077},{"id":"187","name":"Harrison & Campbell","lat":41.87381185,"lng":-87.68880277},{"id":"188","name":"Harrison & Western","lat":41.87383119,"lng":-87.68641377},{"id":"189","name":"Harrison & Oakley","lat":41.87388985,"lng":-87.68391877},{"id":"190","name":"Harrison & Leavitt","lat":41.87391885,"lng":-87.68145476},{"id":"191","name":"Harrison & Hoyne","lat":41.87395785,"lng":-87.67899576},{"id":"193","name":"Harrison & Ashland","lat":41.87411343,"lng":-87.66679946},{"id":"198","name":"Harrison & Racine","lat":41.87419885,"lng":-87.65717276},{"id":"200","name":"Harrison & Morgan","lat":41.87429085,"lng":-87.65194376},{"id":"201","name":"900 W Harrison","lat":41.87434885,"lng":-87.64913776},{"id":"205","name":"UIC-Halsted Blue Line Station","lat":41.87550785,"lng":-87.64725975},{"id":"206","name":"Harrison & Halsted","lat":41.87444885,"lng":-87.64775575},{"id":"207","name":"900 W Harrison","lat":41.87448546,"lng":-87.64986857},{"id":"208","name":"Harrison & Morgan","lat":41.87447085,"lng":-87.65158876},{"id":"210","name":"Harrison & Racine","lat":41.87433785,"lng":-87.65745276},{"id":"216","name":"Harrison & Hoyne","lat":41.87404485,"lng":-87.67873476},{"id":"217","name":"Harrison & Leavitt","lat":41.87401685,"lng":-87.68121076},{"id":"218","name":"Harrison & Oakley","lat":41.87399537,"lng":-87.68359471},{"id":"220","name":"Harrison & Campbell","lat":41.87392985,"lng":-87.68854877},{"id":"221","name":"Harrison & Maplewood","lat":41.87392085,"lng":-87.69049877},{"id":"222","name":"Harrison & Washtenaw","lat":41.87385785,"lng":-87.69358477},{"id":"224","name":"Harrison & Francisco","lat":41.87381685,"lng":-87.69841077},{"id":"225","name":"Harrison & Sacramento","lat":41.87386648,"lng":-87.70085674},{"id":"226","name":"Harrison & Albany","lat":41.87383048,"lng":-87.70329775},{"id":"227","name":"Harrison & Kedzie","lat":41.87376025,"lng":-87.70572473},{"id":"228","name":"Congress & Kedzie","lat":41.87497523,"lng":-87.70608926},{"id":"229","name":"Congress & Spaulding","lat":41.87460959,"lng":-87.70824509},{"id":"230","name":"Congress & Homan","lat":41.87460259,"lng":-87.71054309},{"id":"231","name":"Congress & St. Louis","lat":41.87438451,"lng":-87.71239605},{"id":"233","name":"3700 W Congress","lat":41.87453781,"lng":-87.71791086},{"id":"234","name":"Congress & Hamlin/Independence","lat":41.87451733,"lng":-87.71961994},{"id":"235","name":"Congress & Springfield","lat":41.87450385,"lng":-87.72259378},{"id":"237","name":"Congress & Karlov","lat":41.87440653,"lng":-87.72775279},{"id":"239","name":"Congress & Kildare","lat":41.87435429,"lng":-87.73270879},{"id":"240","name":"Harrison & Kostner","lat":41.87378259,"lng":-87.7357051},{"id":"241","name":"Harrison & Kilbourn","lat":41.87335215,"lng":-87.73747524},{"id":"242","name":"Harrison & Kolmar","lat":41.87331008,"lng":-87.73914453},{"id":"243","name":"4630 W Harrison","lat":41.87325648,"lng":-87.74083009},{"id":"244","name":"Harrison & Kilpatrick","lat":41.87320602,"lng":-87.74242219},{"id":"246","name":"Harrison & Lavergne","lat":41.87308181,"lng":-87.74899335},{"id":"247","name":"Harrison & Leamington","lat":41.87306137,"lng":-87.75320701},{"id":"248","name":"Harrison & Laramie","lat":41.87302624,"lng":-87.75465645},{"id":"249","name":"Harrison & Lockwood","lat":41.87296136,"lng":-87.75730902},{"id":"250","name":"5400 W Harrison","lat":41.87296047,"lng":-87.75948602},{"id":"252","name":"Harrison & Central","lat":41.8729318,"lng":-87.76448301},{"id":"257","name":"5500W Roosevelt","lat":41.86555861,"lng":-87.76277863},{"id":"258","name":"Roosevelt & 54th Avenue","lat":41.86560082,"lng":-87.75946501},{"id":"259","name":"5300 W. Roosevelt","lat":41.86565722,"lng":-87.75705856},{"id":"260","name":"Roosevelt & Laramie","lat":41.86565643,"lng":-87.7546797},{"id":"261","name":"Roosevelt & 51st Avenue","lat":41.86574288,"lng":-87.75214404},{"id":"262","name":"Roosevelt & 50th Avenue","lat":41.86575762,"lng":-87.74976505},{"id":"263","name":"Roosevelt & 49th Avenue","lat":41.86579576,"lng":-87.74733325},{"id":"265","name":"Roosevelt & 47th Avenue","lat":41.86586623,"lng":-87.74241643},{"id":"268","name":"Roosevelt & Kilbourn","lat":41.86593515,"lng":-87.73750567},{"id":"270","name":"Roosevelt & Kildare","lat":41.8660058,"lng":-87.732603},{"id":"272","name":"Roosevelt & Karlov","lat":41.86608285,"lng":-87.72772678},{"id":"274","name":"Roosevelt & Springfield","lat":41.86612293,"lng":-87.72282704},{"id":"275","name":"Roosevelt & Independence","lat":41.86615631,"lng":-87.72026823},{"id":"277","name":"Roosevelt & Lawndale","lat":41.86618561,"lng":-87.71794769},{"id":"278","name":"Roosevelt & Central Park","lat":41.86621189,"lng":-87.71564039},{"id":"279","name":"Roosevelt & St. Louis","lat":41.86626585,"lng":-87.71308677},{"id":"283","name":"Roosevelt & Albany","lat":41.86635347,"lng":-87.70325277},{"id":"284","name":"Roosevelt & Sacramento","lat":41.86637815,"lng":-87.70095927},{"id":"285","name":"Roosevelt & Francisco","lat":41.86642685,"lng":-87.69843277},{"id":"287","name":"Roosevelt & Washtenaw","lat":41.86648285,"lng":-87.69353277},{"id":"288","name":"Roosevelt & Talman","lat":41.86649285,"lng":-87.69230777},{"id":"296","name":"Roosevelt & Wolcott","lat":41.8666326,"lng":-87.67357317},{"id":"297","name":"Roosevelt & Wood","lat":41.86665128,"lng":-87.67147397},{"id":"298","name":"Roosevelt & Paulina","lat":41.86669842,"lng":-87.6690135},{"id":"300","name":"Roosevelt & Laflin","lat":41.86677527,"lng":-87.66410565},{"id":"302","name":"Roosevelt & Throop","lat":41.86685398,"lng":-87.65926234},{"id":"303","name":"Roosevelt & Racine","lat":41.86689478,"lng":-87.6568219},{"id":"305","name":"Roosevelt & Blue Island","lat":41.8669458,"lng":-87.65361104},{"id":"306","name":"Roosevelt & Morgan","lat":41.86703739,"lng":-87.65122947},{"id":"307","name":"900 W Roosevelt","lat":41.86701396,"lng":-87.6494113},{"id":"310","name":"Roosevelt & Jefferson","lat":41.86712646,"lng":-87.64227639},{"id":"312","name":"Roosevelt & Canal","lat":41.86714676,"lng":-87.63883173},{"id":"315","name":"Roosevelt & Clark","lat":41.86724646,"lng":-87.63061186},{"id":"316","name":"Roosevelt & State","lat":41.86729484,"lng":-87.6271163},{"id":"326","name":"327 W Roosevelt","lat":41.86742411,"lng":-87.63554935},{"id":"327","name":"Roosevelt & Canal","lat":41.86740804,"lng":-87.63906117},{"id":"332","name":"900 W Roosevelt","lat":41.86722706,"lng":-87.6494372},{"id":"333","name":"Roosevelt & Morgan","lat":41.86719657,"lng":-87.65089924},{"id":"334","name":"Roosevelt & Blue Island","lat":41.86717505,"lng":-87.65308541},{"id":"335","name":"Roosevelt & May","lat":41.86712126,"lng":-87.65499687},{"id":"336","name":"Roosevelt & Racine","lat":41.86711318,"lng":-87.65652081},{"id":"337","name":"Roosevelt & Throop","lat":41.86707394,"lng":-87.65904044},{"id":"341","name":"Roosevelt & Paulina","lat":41.86703661,"lng":-87.66879849},{"id":"342","name":"Roosevelt & Wood","lat":41.86701154,"lng":-87.67112898},{"id":"343","name":"Roosevelt & Wolcott","lat":41.86696721,"lng":-87.67354398},{"id":"344","name":"Roosevelt & Damen","lat":41.86694318,"lng":-87.67595854},{"id":"348","name":"Roosevelt & Western","lat":41.8667238,"lng":-87.68586026},{"id":"349","name":"Roosevelt & Campbell","lat":41.86669193,"lng":-87.68878149},{"id":"350","name":"Roosevelt & Talman","lat":41.86660486,"lng":-87.69217277},{"id":"351","name":"Roosevelt & Washtenaw","lat":41.86664268,"lng":-87.69330786},{"id":"353","name":"Roosevelt & Francisco","lat":41.86657293,"lng":-87.69825689},{"id":"354","name":"Roosevelt & Sacramento","lat":41.8665476,"lng":-87.70065175},{"id":"355","name":"Roosevelt & Albany","lat":41.86651976,"lng":-87.70315054},{"id":"356","name":"Roosevelt & Kedzie","lat":41.86650842,"lng":-87.70540846},{"id":"357","name":"Roosevelt & Spaulding","lat":41.86645756,"lng":-87.70793171},{"id":"358","name":"Roosevelt & Homan","lat":41.86642578,"lng":-87.71027553},{"id":"359","name":"Roosevelt & St. Louis","lat":41.86641244,"lng":-87.7128794},{"id":"361","name":"Roosevelt & Lawndale","lat":41.86635319,"lng":-87.71777095},{"id":"362","name":"Roosevelt & Independence","lat":41.86633338,"lng":-87.71939103},{"id":"364","name":"Roosevelt & Springfield","lat":41.86629257,"lng":-87.72266503},{"id":"365","name":"Roosevelt & Pulaski","lat":41.86626185,"lng":-87.72504652},{"id":"366","name":"Roosevelt & Karlov","lat":41.86621702,"lng":-87.72754883},{"id":"367","name":"Roosevelt & Keeler","lat":41.86619221,"lng":-87.72995813},{"id":"368","name":"Roosevelt & Kildare","lat":41.86613089,"lng":-87.73236299},{"id":"369","name":"Roosevelt & Kostner","lat":41.86611191,"lng":-87.73480342},{"id":"370","name":"Roosevelt & Kilbourn","lat":41.86607645,"lng":-87.73720821},{"id":"373","name":"Roosevelt & 47th Avenue","lat":41.86602601,"lng":-87.74225929},{"id":"375","name":"Roosevelt & 49th Avenue","lat":41.86594089,"lng":-87.74703541},{"id":"376","name":"Roosevelt & 50th Avenue","lat":41.8659103,"lng":-87.74946854},{"id":"377","name":"Roosevelt & 51st Avenue","lat":41.8658569,"lng":-87.7520362},{"id":"379","name":"5300 W Roosevelt","lat":41.86582258,"lng":-87.75701849},{"id":"380","name":"Roosevelt & 54th Avenue","lat":41.86577556,"lng":-87.75926685},{"id":"381","name":"5500 W Roosevelt","lat":41.86572287,"lng":-87.76210458},{"id":"382","name":"Roosevelt & Central","lat":41.86567416,"lng":-87.7641751},{"id":"386","name":"Madison & Austin Terminal","lat":41.88032085,"lng":-87.77404879},{"id":"388","name":"Madison & Mayfield","lat":41.880017,"lng":-87.77147809},{"id":"389","name":"Madison & Menard","lat":41.88009561,"lng":-87.7699277},{"id":"390","name":"Madison & Waller","lat":41.88011261,"lng":-87.7682207},{"id":"391","name":"Madison & Parkside","lat":41.88015461,"lng":-87.7666227},{"id":"394","name":"Madison & Lotus","lat":41.8802106,"lng":-87.7619247},{"id":"395","name":"Madison & Long","lat":41.88020766,"lng":-87.75997294},{"id":"396","name":"Madison & Lockwood","lat":41.88025972,"lng":-87.75779544},{"id":"397","name":"Madison & Laramie","lat":41.88027785,"lng":-87.75526579},{"id":"402","name":"Madison & Kilpatrick","lat":41.88045085,"lng":-87.74300378},{"id":"403","name":"Madison & Kenton","lat":41.88048285,"lng":-87.74071078},{"id":"409","name":"Madison & Pulaski","lat":41.88062207,"lng":-87.72582924},{"id":"412","name":"Madison & Central Park","lat":41.88081505,"lng":-87.71598028},{"id":"413","name":"Madison & St. Louis","lat":41.88082173,"lng":-87.71382541},{"id":"415","name":"Madison & Spaulding","lat":41.88089485,"lng":-87.70872777},{"id":"416","name":"Madison & Kedzie","lat":41.88090985,"lng":-87.70633877},{"id":"417","name":"Madison & Albany","lat":41.88095985,"lng":-87.70315277},{"id":"420","name":"Madison & California","lat":41.88101643,"lng":-87.69601342},{"id":"421","name":"Madison & Washtenaw","lat":41.8810403,"lng":-87.69405377},{"id":"423","name":"Madison & Campbell","lat":41.88107037,"lng":-87.68898223},{"id":"425","name":"Madison & Oakley","lat":41.88113582,"lng":-87.68411573},{"id":"427","name":"Madison & Hoyne","lat":41.88123985,"lng":-87.67929877},{"id":"428","name":"Madison & Damen","lat":41.88126985,"lng":-87.67685576},{"id":"429","name":"Madison & United Center (1900 W)","lat":41.88130459,"lng":-87.6742524},{"id":"430","name":"Madison & Wood","lat":41.88133626,"lng":-87.67186882},{"id":"431","name":"Madison & Paulina","lat":41.88137785,"lng":-87.66951876},{"id":"432","name":"Madison & Ashland","lat":41.88140246,"lng":-87.66700553},{"id":"435","name":"Madison & Throop","lat":41.88153285,"lng":-87.65977076},{"id":"436","name":"Madison & Racine","lat":41.88155285,"lng":-87.65733876},{"id":"437","name":"Madison & Aberdeen","lat":41.88161585,"lng":-87.65490276},{"id":"439","name":"Madison & Peoria","lat":41.8816856,"lng":-87.64984351},{"id":"440","name":"Halsted & Madison","lat":41.88200785,"lng":-87.64728576},{"id":"442","name":"Washington & Jefferson","lat":41.88311785,"lng":-87.64285375},{"id":"443","name":"Washington & Canal","lat":41.88309185,"lng":-87.63998175},{"id":"445","name":"Washington & Franklin","lat":41.88313585,"lng":-87.63552175},{"id":"446","name":"Washington & Lasalle","lat":41.88314485,"lng":-87.63263075},{"id":"448","name":"Washington & State","lat":41.88317743,"lng":-87.6275027},{"id":"449","name":"Washington & Wabash","lat":41.88316685,"lng":-87.62597175},{"id":"450","name":"Madison & Wabash","lat":41.88214785,"lng":-87.62597875},{"id":"455","name":"Madison & Clinton","lat":41.8819552,"lng":-87.64104917},{"id":"456","name":"Madison & Jefferson","lat":41.88192248,"lng":-87.64284114},{"id":"458","name":"Madison & Peoria","lat":41.88180785,"lng":-87.64948276},{"id":"459","name":"Madison & Morgan","lat":41.88177485,"lng":-87.65183876},{"id":"460","name":"Madison & Aberdeen","lat":41.88172985,"lng":-87.65420076},{"id":"462","name":"Madison & Throop","lat":41.88164785,"lng":-87.65948876},{"id":"463","name":"Madison & Loomis","lat":41.88159485,"lng":-87.66204576},{"id":"464","name":"Madison & Laflin","lat":41.88155585,"lng":-87.66449576},{"id":"465","name":"Madison & Ashland","lat":41.88153085,"lng":-87.66657276},{"id":"466","name":"Madison & Paulina","lat":41.88149785,"lng":-87.66911876},{"id":"468","name":"Madison & United Center (1900 W)","lat":41.88142657,"lng":-87.67424314},{"id":"469","name":"Madison & Damen","lat":41.88140585,"lng":-87.67645376},{"id":"470","name":"Madison & Hoyne","lat":41.88134485,"lng":-87.67892876},{"id":"473","name":"Madison & Western","lat":41.88124285,"lng":-87.68619877},{"id":"478","name":"Madison & Francisco","lat":41.88111085,"lng":-87.69855777},{"id":"479","name":"Madison & Sacramento","lat":41.88109585,"lng":-87.70106777},{"id":"480","name":"Madison & Albany","lat":41.88105985,"lng":-87.70346277},{"id":"482","name":"Madison & Spaulding","lat":41.88099985,"lng":-87.70857777},{"id":"484","name":"Madison & St. Louis","lat":41.88095085,"lng":-87.71377777},{"id":"485","name":"Madison & Central Park","lat":41.88093349,"lng":-87.71582539},{"id":"486","name":"Madison & Hamlin","lat":41.88087339,"lng":-87.72098393},{"id":"487","name":"Madison & Springfield","lat":41.88081346,"lng":-87.72310928},{"id":"494","name":"Madison & Kenton","lat":41.88065785,"lng":-87.74060378},{"id":"495","name":"Madison & Kilpatrick","lat":41.88063985,"lng":-87.74259578},{"id":"496","name":"Madison & Cicero","lat":41.88061719,"lng":-87.7451286},{"id":"497","name":"Madison & Lamon","lat":41.88057844,"lng":-87.74752428},{"id":"498","name":"Madison & Lavergne","lat":41.88055987,"lng":-87.75004459},{"id":"499","name":"Madison & Leclaire","lat":41.88050135,"lng":-87.75246815},{"id":"502","name":"Madison & Long","lat":41.88041895,"lng":-87.75996977},{"id":"505","name":"Madison & Central","lat":41.88036488,"lng":-87.76469751},{"id":"506","name":"Madison & Parkside","lat":41.88031841,"lng":-87.76639465},{"id":"507","name":"Madison & Waller","lat":41.88029141,"lng":-87.76804165},{"id":"508","name":"Madison & Menard","lat":41.88027341,"lng":-87.76966665},{"id":"509","name":"Madison & Mayfield","lat":41.88023441,"lng":-87.7716668},{"id":"510","name":"Chicago & Austin Terminal","lat":41.89493338,"lng":-87.774849},{"id":"515","name":"Chicago & Central","lat":41.89479828,"lng":-87.76552971},{"id":"516","name":"Chicago & Pine","lat":41.89482085,"lng":-87.76368679},{"id":"518","name":"Chicago & Lockwood","lat":41.89486485,"lng":-87.75815779},{"id":"520","name":"Chicago & Leclaire","lat":41.89489985,"lng":-87.75325579},{"id":"522","name":"Chicago & Lamon","lat":41.89492476,"lng":-87.74831155},{"id":"523","name":"Chicago & Cicero","lat":41.89491352,"lng":-87.74594268},{"id":"524","name":"Chicago & Kilpatrick","lat":41.89498576,"lng":-87.74358055},{"id":"525","name":"Chicago & Kilbourn","lat":41.89507405,"lng":-87.73840331},{"id":"527","name":"Chicago & Kildare","lat":41.89516721,"lng":-87.73356787},{"id":"528","name":"Chicago & Keeler","lat":41.89518804,"lng":-87.7310432},{"id":"529","name":"Chicago & Karlov","lat":41.89523854,"lng":-87.72860506},{"id":"530","name":"Chicago & Pulaski","lat":41.89529755,"lng":-87.72621657},{"id":"531","name":"Chicago & Springfield","lat":41.89535802,"lng":-87.7237095},{"id":"535","name":"Chicago & St. Louis","lat":41.8954139,"lng":-87.71398902},{"id":"537","name":"Chicago & Spaulding","lat":41.89541688,"lng":-87.70906678},{"id":"538","name":"Chicago & Kedzie","lat":41.89548208,"lng":-87.70669667},{"id":"540","name":"Chicago & Sacramento","lat":41.8955223,"lng":-87.70256275},{"id":"543","name":"Chicago & Grand","lat":41.8955674,"lng":-87.6991223},{"id":"544","name":"Chicago & California","lat":41.89558089,"lng":-87.69681202},{"id":"545","name":"Chicago & Washtenaw","lat":41.89559929,"lng":-87.6943615},{"id":"547","name":"Chicago & Campbell","lat":41.89563598,"lng":-87.68941975},{"id":"550","name":"Chicago & Leavitt","lat":41.89575645,"lng":-87.68207532},{"id":"551","name":"Chicago & Hoyne","lat":41.89579526,"lng":-87.6796031},{"id":"552","name":"Chicago & Damen","lat":41.89583864,"lng":-87.67719745},{"id":"553","name":"Chicago & Wolcott","lat":41.89587789,"lng":-87.67474831},{"id":"556","name":"Chicago & Ashland","lat":41.8960009,"lng":-87.66747986},{"id":"557","name":"Chicago & Bishop","lat":41.89605199,"lng":-87.6641516},{"id":"559","name":"Chicago & Elizabeth","lat":41.89612957,"lng":-87.65956623},{"id":"561","name":"Chicago & Milwaukee (Blue Line)","lat":41.89620469,"lng":-87.65554887},{"id":"572","name":"Chicago & Franklin (Brown line)","lat":41.89648162,"lng":-87.63591812},{"id":"574","name":"Chicago & LaSalle","lat":41.89652555,"lng":-87.63295789},{"id":"580","name":"Chicago & Michigan","lat":41.8966687,"lng":-87.62453585},{"id":"582","name":"Chicago & Fairbanks","lat":41.89672386,"lng":-87.62053575},{"id":"584","name":"Fairbanks & Huron","lat":41.89513486,"lng":-87.62038075},{"id":"587","name":"Fairbanks & Ohio","lat":41.89234786,"lng":-87.62038575},{"id":"589","name":"Grand & McClurg","lat":41.8919258,"lng":-87.61799011},{"id":"590","name":"Grand & Fairbanks/Columbus","lat":41.89186986,"lng":-87.62001475},{"id":"593","name":"Fairbanks & Erie","lat":41.89408886,"lng":-87.62022975},{"id":"595","name":"Fairbanks & Superior","lat":41.89569686,"lng":-87.62029075},{"id":"596","name":"Fairbanks & Chicago","lat":41.89665286,"lng":-87.62031675},{"id":"597","name":"Chicago & Mies Van Der Rohe","lat":41.89684602,"lng":-87.62171442},{"id":"599","name":"Chicago & Michigan","lat":41.89680823,"lng":-87.62449911},{"id":"601","name":"Chicago & State (Red Line)","lat":41.89674889,"lng":-87.62802819},{"id":"618","name":"Chicago & Racine","lat":41.89631654,"lng":-87.65740396},{"id":"621","name":"Chicago & Greenview","lat":41.89620485,"lng":-87.66469676},{"id":"622","name":"Chicago & Ashland","lat":41.89615926,"lng":-87.66708492},{"id":"625","name":"Chicago & Wolcott","lat":41.8960386,"lng":-87.67449577},{"id":"631","name":"Chicago & Campbell","lat":41.89580432,"lng":-87.689164},{"id":"633","name":"Chicago & Washtenaw","lat":41.89575737,"lng":-87.69416359},{"id":"634","name":"Chicago & California","lat":41.895738,"lng":-87.69658078},{"id":"636","name":"Chicago & Grand","lat":41.89571406,"lng":-87.69975158},{"id":"638","name":"Chicago & Sacramento","lat":41.89567444,"lng":-87.7026472},{"id":"641","name":"Chicago & Spaulding","lat":41.89561861,"lng":-87.7087673},{"id":"643","name":"Chicago & St. Louis","lat":41.89556983,"lng":-87.71376902},{"id":"644","name":"Chicago & Central Park","lat":41.89554786,"lng":-87.71621107},{"id":"647","name":"Chicago & Springfield","lat":41.89549515,"lng":-87.72350651},{"id":"648","name":"Chicago & Pulaski","lat":41.89545248,"lng":-87.72590695},{"id":"649","name":"Chicago & Karlov","lat":41.89538584,"lng":-87.72843492},{"id":"650","name":"Chicago & Keeler","lat":41.89536187,"lng":-87.73090956},{"id":"651","name":"Chicago & Kildare","lat":41.89532077,"lng":-87.73335446},{"id":"653","name":"Chicago & Kilbourn","lat":41.89522801,"lng":-87.73830492},{"id":"654","name":"Chicago & Kilpatrick","lat":41.89513797,"lng":-87.74342006},{"id":"656","name":"Chicago & Lamon","lat":41.89505781,"lng":-87.74809623},{"id":"658","name":"Chicago & Leclaire","lat":41.89504289,"lng":-87.75310502},{"id":"659","name":"Chicago & Laramie","lat":41.89503003,"lng":-87.75543937},{"id":"660","name":"Chicago & Lockwood","lat":41.8950092,"lng":-87.75797067},{"id":"662","name":"Chicago & Pine","lat":41.89490718,"lng":-87.76346686},{"id":"668","name":"Grand & Nordica Terminal","lat":41.92385977,"lng":-87.8019919},{"id":"669","name":"Grand & Sayre","lat":41.92350485,"lng":-87.8008568},{"id":"670","name":"Grand & Newland","lat":41.92351985,"lng":-87.7990238},{"id":"671","name":"Grand & Newcastle","lat":41.92353385,"lng":-87.7971948},{"id":"672","name":"Grand & Oak Park","lat":41.92352604,"lng":-87.79541961},{"id":"677","name":"Grand & Mobile","lat":41.92187085,"lng":-87.7830658},{"id":"680","name":"Grand & Austin","lat":41.92049885,"lng":-87.7757188},{"id":"681","name":"Grand & Marmora","lat":41.92007137,"lng":-87.77326221},{"id":"683","name":"Grand & Major","lat":41.91917204,"lng":-87.76835591},{"id":"685","name":"5500 W Grand","lat":41.91822189,"lng":-87.7632038},{"id":"686","name":"Grand & Long","lat":41.91781292,"lng":-87.76097389},{"id":"688","name":"Grand & Latrobe","lat":41.91720257,"lng":-87.75765645},{"id":"689","name":"Grand & Laramie","lat":41.91690181,"lng":-87.75609452},{"id":"690","name":"Grand & Leclaire/Armitage","lat":41.9167917,"lng":-87.75352115},{"id":"691","name":"Grand & Lamon","lat":41.91523178,"lng":-87.74946202},{"id":"692","name":"Grand & Cicero","lat":41.91389809,"lng":-87.74616743},{"id":"693","name":"Grand & Kilpatrick","lat":41.91293462,"lng":-87.74366304},{"id":"694","name":"Grand & Kenton","lat":41.91167532,"lng":-87.74053898},{"id":"695","name":"Grand & Kilbourn","lat":41.91097385,"lng":-87.73871678},{"id":"696","name":"Grand & Kostner","lat":41.91004385,"lng":-87.73636678},{"id":"698","name":"Grand & Kildare","lat":41.90911385,"lng":-87.73399978},{"id":"700","name":"Grand & Karlov","lat":41.90709085,"lng":-87.72900178},{"id":"702","name":"Grand & Springfield","lat":41.90515422,"lng":-87.72413076},{"id":"703","name":"Grand & Hamlin","lat":41.90419607,"lng":-87.72160019},{"id":"704","name":"Grand & Lawndale","lat":41.90343767,"lng":-87.71962375},{"id":"708","name":"Grand & Thomas","lat":41.90104665,"lng":-87.71369291},{"id":"714","name":"Grand & Sacramento Blvd.","lat":41.89640674,"lng":-87.70205453},{"id":"717","name":"Grand & Washtenaw","lat":41.89329085,"lng":-87.69426077},{"id":"723","name":"Grand & Leavitt","lat":41.89069986,"lng":-87.68179483},{"id":"724","name":"Grand & Hoyne","lat":41.89070817,"lng":-87.67951386},{"id":"725","name":"Grand & Damen","lat":41.89076764,"lng":-87.67702648},{"id":"726","name":"Grand & Wolcott","lat":41.89081364,"lng":-87.67458148},{"id":"727","name":"Grand & Wood","lat":41.89084864,"lng":-87.67214748},{"id":"728","name":"Grand & Paulina","lat":41.89088464,"lng":-87.66972048},{"id":"729","name":"Grand & Ashland","lat":41.89091134,"lng":-87.66731693},{"id":"730","name":"Grand & Armour","lat":41.89092438,"lng":-87.66559917},{"id":"731","name":"Grand & Noble","lat":41.89096638,"lng":-87.66234816},{"id":"735","name":"Grand & Aberdeen","lat":41.89103651,"lng":-87.65473629},{"id":"736","name":"Grand & Morgan","lat":41.89106665,"lng":-87.65242966},{"id":"737","name":"Grand & Peoria","lat":41.89109625,"lng":-87.6498526},{"id":"738","name":"Grand & Halsted/Milwaukee (Blue Line)","lat":41.89112305,"lng":-87.6477829},{"id":"739","name":"Grand & Union","lat":41.89112225,"lng":-87.6458926},{"id":"741","name":"530 W Grand","lat":41.89117333,"lng":-87.64337122},{"id":"742","name":"Grand & Kingsbury","lat":41.89143524,"lng":-87.63997323},{"id":"744","name":"Grand & Franklin","lat":41.89151524,"lng":-87.63563923},{"id":"747","name":"Illinois & Clark","lat":41.89076586,"lng":-87.63128475},{"id":"751","name":"Illinois (Lower) & Michigan","lat":41.89088891,"lng":-87.62433173},{"id":"754","name":"Illinois & McClurg","lat":41.89100986,"lng":-87.61786575},{"id":"755","name":"Illinois & Peshtigo","lat":41.89104986,"lng":-87.61538175},{"id":"756","name":"Illinois & Lake Shore","lat":41.89103297,"lng":-87.61315337},{"id":"758","name":"Navy Pier Terminal","lat":41.89229697,"lng":-87.61017288},{"id":"759","name":"Grand & Streeter","lat":41.89201886,"lng":-87.61213075},{"id":"760","name":"Grand & Peshtigo","lat":41.89195686,"lng":-87.61539675},{"id":"761","name":"Grand & St. Clair","lat":41.89183186,"lng":-87.62253175},{"id":"764","name":"Grand & State (Red Line)","lat":41.89174401,"lng":-87.62790657},{"id":"765","name":"Grand & Dearborn","lat":41.89172186,"lng":-87.62947275},{"id":"766","name":"Grand & Clark","lat":41.89170086,"lng":-87.63095075},{"id":"769","name":"Grand & Franklin","lat":41.8916728,"lng":-87.63546687},{"id":"771","name":"Grand & Kingsbury","lat":41.89158686,"lng":-87.63976275},{"id":"772","name":"530 W Grand","lat":41.89133986,"lng":-87.64279475},{"id":"776","name":"Grand & Peoria","lat":41.89124477,"lng":-87.64986028},{"id":"778","name":"Grand & Aberdeen","lat":41.89119842,"lng":-87.65450541},{"id":"780","name":"Grand & Racine","lat":41.89116736,"lng":-87.65726321},{"id":"781","name":"Grand & Ogden","lat":41.8911561,"lng":-87.65869272},{"id":"782","name":"Grand & Noble","lat":41.89108901,"lng":-87.66210566},{"id":"783","name":"Grand & Armour","lat":41.89108927,"lng":-87.66541172},{"id":"784","name":"Grand & Ashland","lat":41.89107175,"lng":-87.66696443},{"id":"785","name":"Grand & Paulina","lat":41.89102588,"lng":-87.66948357},{"id":"786","name":"Grand & Wood","lat":41.89099455,"lng":-87.67186777},{"id":"787","name":"Grand & Wolcott","lat":41.89095569,"lng":-87.67435929},{"id":"789","name":"Grand & Hoyne","lat":41.89087579,"lng":-87.6791861},{"id":"790","name":"Grand & Leavitt","lat":41.89078351,"lng":-87.68161628},{"id":"791","name":"Grand & Oakley","lat":41.89078215,"lng":-87.68413527},{"id":"794","name":"Grand & Rockwell","lat":41.89239465,"lng":-87.69160604},{"id":"796","name":"Grand & Washtenaw","lat":41.8934173,"lng":-87.69405971},{"id":"797","name":"Grand & California","lat":41.89424385,"lng":-87.69624477},{"id":"798","name":"Grand & Chicago","lat":41.89539966,"lng":-87.69907581},{"id":"800","name":"Grand & Sacramento","lat":41.89687148,"lng":-87.70280633},{"id":"802","name":"Grand & Kedzie","lat":41.89821039,"lng":-87.70622389},{"id":"805","name":"Grand & Thomas","lat":41.90112643,"lng":-87.71344401},{"id":"808","name":"Grand & Division","lat":41.90262869,"lng":-87.71730531},{"id":"809","name":"Grand & Lawndale","lat":41.90350585,"lng":-87.71949678},{"id":"811","name":"Grand & Springfield","lat":41.90517814,"lng":-87.72376262},{"id":"812","name":"Grand & Pulaski","lat":41.9061676,"lng":-87.72627138},{"id":"813","name":"Grand & Karlov","lat":41.90720237,"lng":-87.72875964},{"id":"814","name":"Grand & Keeler","lat":41.90815607,"lng":-87.73122157},{"id":"815","name":"Grand & Kildare","lat":41.909109,"lng":-87.73364843},{"id":"817","name":"Grand & Kostner","lat":41.91026285,"lng":-87.73658178},{"id":"818","name":"Grand & Kilbourn","lat":41.91099985,"lng":-87.73844979},{"id":"819","name":"Grand & Kenton","lat":41.91170486,"lng":-87.74018546},{"id":"820","name":"4700 W Grand","lat":41.91293572,"lng":-87.74327101},{"id":"821","name":"Grand & Cicero","lat":41.91398504,"lng":-87.74579179},{"id":"822","name":"Grand & Lamon","lat":41.91532189,"lng":-87.74920043},{"id":"823","name":"Grand & Leclaire/Armitage","lat":41.91669536,"lng":-87.7528236},{"id":"826","name":"Grand & Lockwood","lat":41.91744634,"lng":-87.75830298},{"id":"828","name":"5500 W Grand","lat":41.91832336,"lng":-87.76309023},{"id":"829","name":"Grand & Central","lat":41.91895179,"lng":-87.76629909},{"id":"830","name":"Grand & Major","lat":41.91925849,"lng":-87.7681679},{"id":"832","name":"Grand & Marmora","lat":41.92016031,"lng":-87.7730639},{"id":"833","name":"Grand & Austin","lat":41.92062026,"lng":-87.77547941},{"id":"834","name":"Grand & Meade","lat":41.92106456,"lng":-87.77797814},{"id":"836","name":"Grand & Mobile","lat":41.92196052,"lng":-87.78288124},{"id":"837","name":"Grand & Narragansett","lat":41.92266895,"lng":-87.78528291},{"id":"838","name":"Grand & Natchez","lat":41.92328298,"lng":-87.78769863},{"id":"840","name":"Grand & Normandy","lat":41.92370555,"lng":-87.79269284},{"id":"842","name":"Grand & New England","lat":41.92367135,"lng":-87.79751132},{"id":"844","name":"Grand & Sayre","lat":41.92360689,"lng":-87.80052154},{"id":"845","name":"Neva & North Ave","lat":41.90903385,"lng":-87.8040158},{"id":"846","name":"North Ave & Forest","lat":41.90884724,"lng":-87.80129633},{"id":"847","name":"North Ave & Kenilworth","lat":41.90890785,"lng":-87.7981088},{"id":"848","name":"North Ave & Oak Park","lat":41.90897814,"lng":-87.79517612},{"id":"849","name":"North Ave & Linden","lat":41.9090038,"lng":-87.7924564},{"id":"850","name":"North Ave & East","lat":41.90900385,"lng":-87.7901028},{"id":"851","name":"North Ave & Elmwood","lat":41.90900864,"lng":-87.78748255},{"id":"852","name":"North Ave & Narragansett","lat":41.90907058,"lng":-87.78511338},{"id":"854","name":"North Ave & Ridgeland","lat":41.90910585,"lng":-87.78351072},{"id":"856","name":"North Ave & Lombard","lat":41.90911768,"lng":-87.78091112},{"id":"860","name":"North Ave & Menard","lat":41.90921511,"lng":-87.77086667},{"id":"861","name":"North Ave & Major","lat":41.9092691,"lng":-87.76781071},{"id":"863","name":"North Ave & Linder","lat":41.90935385,"lng":-87.76318379},{"id":"865","name":"North Ave & Lockwood","lat":41.90942434,"lng":-87.75801881},{"id":"867","name":"North Ave & Leclaire","lat":41.90944254,"lng":-87.75276528},{"id":"868","name":"North Ave & Lavergne","lat":41.90946205,"lng":-87.75114843},{"id":"870","name":"North Ave & Cicero","lat":41.90951871,"lng":-87.74637544},{"id":"871","name":"North Ave & Kilpatrick","lat":41.90955855,"lng":-87.74378138},{"id":"874","name":"North Ave & Kostner","lat":41.90965385,"lng":-87.73650878},{"id":"875","name":"North Ave & Grand","lat":41.90968585,"lng":-87.73446878},{"id":"879","name":"North Ave & Springfield","lat":41.90980706,"lng":-87.7242429},{"id":"880","name":"North Ave & Hamlin","lat":41.90988785,"lng":-87.72176878},{"id":"881","name":"North Ave & Lawndale","lat":41.90988822,"lng":-87.71936989},{"id":"882","name":"North Ave & Central Park","lat":41.90993089,"lng":-87.71680303},{"id":"883","name":"North Ave & St. Louis","lat":41.90991631,"lng":-87.71452706},{"id":"885","name":"North Ave & Spaulding","lat":41.90998841,"lng":-87.70958137},{"id":"887","name":"North Ave & Albany","lat":41.91004211,"lng":-87.7047561},{"id":"888","name":"North Ave & Humboldt","lat":41.91007093,"lng":-87.70201119},{"id":"889","name":"North Ave & Francisco","lat":41.9101033,"lng":-87.69893145},{"id":"890","name":"North Ave & California","lat":41.91012159,"lng":-87.69722928},{"id":"891","name":"North Ave & Washtenaw","lat":41.91019102,"lng":-87.69464226},{"id":"893","name":"North Ave & Campbell","lat":41.91023151,"lng":-87.68976133},{"id":"894","name":"North Ave & Western","lat":41.91021288,"lng":-87.68743993},{"id":"895","name":"North Ave & Oakley","lat":41.91029451,"lng":-87.68486233},{"id":"896","name":"North Ave & Leavitt","lat":41.9103345,"lng":-87.68242733},{"id":"897","name":"North Ave & Hoyne","lat":41.91036199,"lng":-87.68004555},{"id":"898","name":"North Ave & Milwaukee/Damen (Blue Line)","lat":41.91042118,"lng":-87.67767664},{"id":"899","name":"North Ave & Wolcott","lat":41.91047152,"lng":-87.67513974},{"id":"900","name":"North Ave & Wood","lat":41.91050752,"lng":-87.67268674},{"id":"901","name":"North Ave & Paulina","lat":41.91054352,"lng":-87.67025074},{"id":"902","name":"North Ave & Ashland","lat":41.91056442,"lng":-87.6678835},{"id":"903","name":"North Ave & Bosworth","lat":41.91057765,"lng":-87.66629267},{"id":"910","name":"North Ave & Sheffield","lat":41.91077612,"lng":-87.65315265},{"id":"913","name":"North Ave & Clybourn/Halsted (Red Line)","lat":41.91084571,"lng":-87.64898165},{"id":"915","name":"North Ave & Orchard","lat":41.9109109,"lng":-87.645936},{"id":"916","name":"North Ave & Larrabee","lat":41.91093,"lng":-87.64362808},{"id":"918","name":"North Ave & Sedgwick (Brown Line)","lat":41.91100629,"lng":-87.63878333},{"id":"919","name":"North Ave & North Park","lat":41.91103594,"lng":-87.63679637},{"id":"920","name":"North Ave & Wells","lat":41.91105777,"lng":-87.63487966},{"id":"923","name":"North Ave & Clark Terminal","lat":41.91128786,"lng":-87.63120075},{"id":"924","name":"North Ave & Clark","lat":41.91124235,"lng":-87.6320275},{"id":"926","name":"North Ave & Wells","lat":41.91119444,"lng":-87.63453312},{"id":"927","name":"North Ave & Sedgwick (Brown Line)","lat":41.91123097,"lng":-87.63842484},{"id":"928","name":"North Ave & Cleveland","lat":41.91120497,"lng":-87.6407641},{"id":"929","name":"North Ave & Larrabee","lat":41.91107624,"lng":-87.64383664},{"id":"933","name":"North Ave & Fremont","lat":41.91095093,"lng":-87.65101951},{"id":"934","name":"North Ave & Kingsbury","lat":41.91087431,"lng":-87.6540524},{"id":"939","name":"North Ave & Bosworth","lat":41.91070508,"lng":-87.66624828},{"id":"941","name":"North Ave & Paulina","lat":41.91069153,"lng":-87.67009975},{"id":"942","name":"North Ave & Wood","lat":41.91062375,"lng":-87.67246631},{"id":"943","name":"North Ave & Wolcott","lat":41.91058852,"lng":-87.67509676},{"id":"945","name":"North Ave & Milwaukee/Damen (Blue Line)","lat":41.91055215,"lng":-87.67811477},{"id":"946","name":"North Ave & Hoyne","lat":41.91054293,"lng":-87.67976602},{"id":"947","name":"North Ave & Leavitt","lat":41.91050474,"lng":-87.68223346},{"id":"949","name":"North Ave & Western","lat":41.91039776,"lng":-87.68703494},{"id":"950","name":"North Ave & Campbell","lat":41.91037535,"lng":-87.68953613},{"id":"951","name":"North Ave & Rockwell","lat":41.91038731,"lng":-87.69196898},{"id":"954","name":"North Ave & Francisco","lat":41.91031109,"lng":-87.69891452},{"id":"957","name":"North Ave & Albany","lat":41.91028019,"lng":-87.7044776},{"id":"959","name":"North Ave & Spaulding","lat":41.91018821,"lng":-87.70986121},{"id":"961","name":"North Ave & Drake","lat":41.91012195,"lng":-87.71471738},{"id":"963","name":"North Ave & Lawndale","lat":41.91010238,"lng":-87.71885991},{"id":"964","name":"North Ave & Hamlin","lat":41.91010438,"lng":-87.72125891},{"id":"965","name":"North Ave & Springfield","lat":41.91002836,"lng":-87.72370125},{"id":"967","name":"North Ave & Karlov","lat":41.90995711,"lng":-87.72868003},{"id":"968","name":"North Ave & Keeler","lat":41.9099418,"lng":-87.73111576},{"id":"971","name":"North Ave & Kostner/Grand","lat":41.90985285,"lng":-87.73680778},{"id":"974","name":"North Ave & Kilpatrick","lat":41.90977586,"lng":-87.74330852},{"id":"975","name":"North Ave & Cicero","lat":41.90975067,"lng":-87.745867},{"id":"976","name":"North Ave & Lamon","lat":41.9096982,"lng":-87.7491015},{"id":"977","name":"North Ave & Lavergne","lat":41.90964103,"lng":-87.75104355},{"id":"978","name":"North Ave & Leclaire","lat":41.90965449,"lng":-87.75252651},{"id":"981","name":"North Ave & Long","lat":41.90951704,"lng":-87.76040555},{"id":"984","name":"North Ave & Major","lat":41.9094635,"lng":-87.76781948},{"id":"985","name":"North Ave & Menard","lat":41.9094339,"lng":-87.77010949},{"id":"986","name":"North Ave & Mayfield","lat":41.90939523,"lng":-87.77314765},{"id":"987","name":"North Ave & Austin","lat":41.90937271,"lng":-87.77509831},{"id":"988","name":"North Ave & Meade","lat":41.90930361,"lng":-87.77747584},{"id":"989","name":"North Ave & Melvina","lat":41.90931877,"lng":-87.78000969},{"id":"990","name":"North Ave & Merrimac","lat":41.9092872,"lng":-87.78156899},{"id":"992","name":"North Ave & Narragansett","lat":41.90927977,"lng":-87.78440626},{"id":"993","name":"North Ave & Nagle","lat":41.90922984,"lng":-87.78655993},{"id":"996","name":"North Ave & Natoma","lat":41.90917066,"lng":-87.79181556},{"id":"997","name":"North Ave & Oak Park","lat":41.90910866,"lng":-87.79450355},{"id":"998","name":"North Ave & New England","lat":41.90912418,"lng":-87.79711518},{"id":"999","name":"North Ave & Sayre","lat":41.90906605,"lng":-87.80013274},{"id":"1000","name":"North Ave & Nordica","lat":41.90904623,"lng":-87.80200123},{"id":"1001","name":"North Ave & Neva","lat":41.90900991,"lng":-87.80372982},{"id":"1002","name":"Harlem & North Ave","lat":41.90914582,"lng":-87.8056297},{"id":"1004","name":"Harlem & Wabansia","lat":41.91056973,"lng":-87.80571282},{"id":"1005","name":"Wabansia & Neva","lat":41.91068885,"lng":-87.8041108},{"id":"1011","name":"Howard & Sheridan","lat":42.0192029,"lng":-87.6661827},{"id":"1012","name":"Sheridan & Birchwood","lat":42.01802888,"lng":-87.66580777},{"id":"1014","name":"Sheridan & Jarvis","lat":42.01580855,"lng":-87.66511946},{"id":"1015","name":"Sheridan & Sherwin","lat":42.01483191,"lng":-87.66469976},{"id":"1016","name":"Sheridan & Chase","lat":42.01376488,"lng":-87.66415077},{"id":"1017","name":"Sheridan & Touhy","lat":42.01265687,"lng":-87.66353177},{"id":"1018","name":"Sheridan & Estes","lat":42.01142187,"lng":-87.66295777},{"id":"1020","name":"Sheridan & Lunt","lat":42.00900987,"lng":-87.66215177},{"id":"1021","name":"Sheridan & Morse","lat":42.00778487,"lng":-87.66175477},{"id":"1023","name":"Sheridan & Pratt","lat":42.00537187,"lng":-87.66100377},{"id":"1025","name":"Sheridan & North Shore","lat":42.00334945,"lng":-87.66092516},{"id":"1027","name":"Sheridan & Loyola (Red Line)","lat":42.00143087,"lng":-87.66086577},{"id":"1028","name":"Sheridan & Arthur","lat":42.00025487,"lng":-87.66081377},{"id":"1029","name":"Sheridan & Broadway/Devon","lat":41.99813835,"lng":-87.66023127},{"id":"1030","name":"Sheridan & Winthrop","lat":41.99812855,"lng":-87.65845202},{"id":"1031","name":"Sheridan & Kenmore","lat":41.99817586,"lng":-87.65688608},{"id":"1032","name":"Sheridan & Rosemont","lat":41.99624387,"lng":-87.65565977},{"id":"1033","name":"Sheridan & Granville","lat":41.99442687,"lng":-87.65560377},{"id":"1034","name":"Sheridan & Glenlake","lat":41.99217487,"lng":-87.65553377},{"id":"1035","name":"Sheridan & Thorndale","lat":41.98992387,"lng":-87.65546477},{"id":"1036","name":"Sheridan & Ardmore","lat":41.98746657,"lng":-87.6553847},{"id":"1037","name":"Sheridan & Hollywood","lat":41.98534687,"lng":-87.65532477},{"id":"1038","name":"Sheridan & Bryn Mawr","lat":41.98348887,"lng":-87.65525177},{"id":"1039","name":"Sheridan & Catalpa","lat":41.98169187,"lng":-87.65522777},{"id":"1040","name":"Sheridan & Balmoral","lat":41.97979032,"lng":-87.65516098},{"id":"1041","name":"Sheridan & Berwyn","lat":41.97801981,"lng":-87.65513486},{"id":"1042","name":"Sheridan & Foster","lat":41.97622087,"lng":-87.65507477},{"id":"1043","name":"Sheridan & Winona","lat":41.97510287,"lng":-87.65505377},{"id":"1044","name":"Sheridan & Argyle","lat":41.97312787,"lng":-87.65500677},{"id":"1045","name":"Sheridan & Ainslie","lat":41.97144721,"lng":-87.65496145},{"id":"1047","name":"Sheridan & Lawrence","lat":41.96893552,"lng":-87.65489967},{"id":"1048","name":"Sheridan & Leland","lat":41.96709487,"lng":-87.65488777},{"id":"1049","name":"Sheridan & Wilson","lat":41.96525387,"lng":-87.65486377},{"id":"1050","name":"Sheridan & Sunnyside","lat":41.96342887,"lng":-87.65484376},{"id":"1051","name":"Sheridan & Montrose","lat":41.96186587,"lng":-87.65480777},{"id":"1052","name":"Sheridan & Broadway/Montrose","lat":41.96083568,"lng":-87.65479933},{"id":"1053","name":"4242 N Sheridan","lat":41.95934887,"lng":-87.65472376},{"id":"1054","name":"Sheridan & Buena","lat":41.95820987,"lng":-87.65472949},{"id":"1055","name":"Sheridan & Cuyler","lat":41.95563487,"lng":-87.65469428},{"id":"1056","name":"Sheridan & Irving Park","lat":41.95430598,"lng":-87.65461685},{"id":"1057","name":"Sheridan & Sheffield","lat":41.95263284,"lng":-87.65417389},{"id":"1058","name":"Sheridan & Fremont","lat":41.95267033,"lng":-87.65174415},{"id":"1060","name":"Sheridan & Pine Grove","lat":41.95281553,"lng":-87.64766469},{"id":"1061","name":"Lake Shore & Grace","lat":41.95206563,"lng":-87.64511955},{"id":"1062","name":"Lake Shore & Waveland","lat":41.9502855,"lng":-87.64455019},{"id":"1063","name":"Lake Shore & Addison","lat":41.94859864,"lng":-87.64344051},{"id":"1064","name":"Lake Shore & Brompton","lat":41.94756697,"lng":-87.64294996},{"id":"1065","name":"Lake Shore & Cornelia","lat":41.9466264,"lng":-87.64238392},{"id":"1067","name":"Lake Shore & Hawthorne","lat":41.94466256,"lng":-87.64129768},{"id":"1068","name":"Lake Shore & Roscoe","lat":41.94322398,"lng":-87.64058447},{"id":"1070","name":"Lake Shore & Melrose","lat":41.94129193,"lng":-87.6396757},{"id":"1072","name":"Sheridan & Briar","lat":41.93857809,"lng":-87.63957448},{"id":"1073","name":"Sheridan & Barry","lat":41.93757324,"lng":-87.63954075},{"id":"1074","name":"Sheridan & Wellington","lat":41.93643247,"lng":-87.6395066},{"id":"1075","name":"Sheridan & Oakdale","lat":41.93539039,"lng":-87.63947109},{"id":"1076","name":"Sheridan & Surf","lat":41.93419414,"lng":-87.63943174},{"id":"1077","name":"Sheridan & Diversey","lat":41.93302333,"lng":-87.63940339},{"id":"1078","name":"Stockton & Wrightwood","lat":41.93131186,"lng":-87.63903655},{"id":"1079","name":"Stockton & Roslyn","lat":41.92830034,"lng":-87.63900749},{"id":"1080","name":"Stockton & Arlington","lat":41.92649591,"lng":-87.63778048},{"id":"1081","name":"Stockton & Fullerton","lat":41.92548386,"lng":-87.63616676},{"id":"1082","name":"Stockton & Webster","lat":41.92212396,"lng":-87.63581172},{"id":"1083","name":"Stockton & Dickens","lat":41.92031105,"lng":-87.6356968},{"id":"1084","name":"Stockton & Armitage","lat":41.91880269,"lng":-87.63463893},{"id":"1085","name":"Stockton & Lincoln","lat":41.91574686,"lng":-87.63308975},{"id":"1086","name":"Stockton & LaSalle","lat":41.91362314,"lng":-87.63185634},{"id":"1087","name":"Lake Shore & North Ave","lat":41.91050486,"lng":-87.62632275},{"id":"1088","name":"Lake Shore & Burton","lat":41.90934986,"lng":-87.62624575},{"id":"1089","name":"Lake Shore & Schiller","lat":41.90757286,"lng":-87.62578775},{"id":"1090","name":"Lake Shore & Banks","lat":41.90660286,"lng":-87.62554775},{"id":"1091","name":"Lake Shore & Goethe","lat":41.90566186,"lng":-87.62531575},{"id":"1092","name":"Lake Shore & Scott","lat":41.90470986,"lng":-87.62515375},{"id":"1093","name":"Lake Shore & Division","lat":41.90382986,"lng":-87.62503675},{"id":"1094","name":"Lake Shore & Elm","lat":41.90298186,"lng":-87.62475775},{"id":"1095","name":"Lake Shore & Cedar","lat":41.90223286,"lng":-87.62451875},{"id":"1096","name":"Lake Shore & Oak","lat":41.90095486,"lng":-87.62428975},{"id":"1097","name":"Michigan & Delaware","lat":41.89935286,"lng":-87.62425175},{"id":"1098","name":"Michigan & Pearson","lat":41.89773886,"lng":-87.62423975},{"id":"1100","name":"Michigan & Erie","lat":41.89429086,"lng":-87.62436975},{"id":"1101","name":"Michigan & Ohio","lat":41.89269886,"lng":-87.62433375},{"id":"1102","name":"Michigan & Illinois","lat":41.89104012,"lng":-87.62429915},{"id":"1103","name":"Michigan & Hubbard (Wrigley Bldg.)","lat":41.88990186,"lng":-87.62424975},{"id":"1104","name":"Michigan & South Water","lat":41.88691229,"lng":-87.62468635},{"id":"1105","name":"Michigan & Lake/Randolph","lat":41.88511186,"lng":-87.62462075},{"id":"1106","name":"Michigan & Washington","lat":41.88342185,"lng":-87.62459375},{"id":"1108","name":"Adams & S. Wacker","lat":41.87940785,"lng":-87.63654775},{"id":"1110","name":"Michigan & Jackson","lat":41.87843685,"lng":-87.62445175},{"id":"1111","name":"Ida B Wells Drive & Wabash","lat":41.87577585,"lng":-87.62579375},{"id":"1113","name":"State & Van Buren","lat":41.87685552,"lng":-87.62754829},{"id":"1115","name":"State & Adams","lat":41.87940926,"lng":-87.62761545},{"id":"1117","name":"State & Madison","lat":41.88193285,"lng":-87.62768075},{"id":"1119","name":"Michigan & Randolph","lat":41.88469579,"lng":-87.6243233},{"id":"1120","name":"Michigan & South Water","lat":41.8867076,"lng":-87.62438975},{"id":"1121","name":"Michigan & E. Wacker","lat":41.88808386,"lng":-87.62443075},{"id":"1122","name":"Michigan & Hubbard (Tribune Bldg.)","lat":41.89021286,"lng":-87.62397475},{"id":"1123","name":"Michigan & Grand","lat":41.89177686,"lng":-87.62403975},{"id":"1124","name":"Michigan & Ontario","lat":41.89320186,"lng":-87.62409475},{"id":"1125","name":"Michigan & Huron","lat":41.89480586,"lng":-87.62410975},{"id":"1126","name":"Michigan & Chicago","lat":41.89654286,"lng":-87.62413875},{"id":"1127","name":"Michigan & Chestnut","lat":41.89807686,"lng":-87.62396575},{"id":"1128","name":"Michigan & Delaware/Walton","lat":41.89944286,"lng":-87.62400975},{"id":"1129","name":"Michigan & Oak","lat":41.90065186,"lng":-87.62401375},{"id":"1130","name":"Lake Shore & Cedar","lat":41.90252786,"lng":-87.62444375},{"id":"1131","name":"Lake Shore & Elm","lat":41.90330986,"lng":-87.62470175},{"id":"1132","name":"Lake Shore & Division","lat":41.90419886,"lng":-87.62497175},{"id":"1133","name":"Lake Shore & Scott","lat":41.90495686,"lng":-87.62502975},{"id":"1134","name":"Lake Shore & Goethe","lat":41.90606986,"lng":-87.62527275},{"id":"1135","name":"Lake Shore & Banks","lat":41.90705186,"lng":-87.62551275},{"id":"1136","name":"Lake Shore & Schiller","lat":41.90807186,"lng":-87.62576575},{"id":"1137","name":"Lake Shore & Burton","lat":41.90968335,"lng":-87.62607222},{"id":"1138","name":"Lake Shore & North Ave","lat":41.91049435,"lng":-87.62612422},{"id":"1139","name":"Stockton & LaSalle","lat":41.91378286,"lng":-87.63170075},{"id":"1140","name":"Stockton & Lincoln","lat":41.91605968,"lng":-87.63324075},{"id":"1141","name":"Stockton & Armitage","lat":41.91875793,"lng":-87.63440381},{"id":"1142","name":"Stockton & Dickens","lat":41.92024404,"lng":-87.63547497},{"id":"1143","name":"Stockton & Webster","lat":41.92193127,"lng":-87.63563132},{"id":"1144","name":"Stockton & Fullerton","lat":41.92556976,"lng":-87.63587558},{"id":"1145","name":"Stockton & Arlington","lat":41.92663915,"lng":-87.63773393},{"id":"1146","name":"Stockton & Roslyn","lat":41.92830715,"lng":-87.63877302},{"id":"1147","name":"Stockton & Wrightwood","lat":41.93132741,"lng":-87.63888937},{"id":"1148","name":"Sheridan & Diversey","lat":41.93311655,"lng":-87.63918003},{"id":"1149","name":"Sheridan & Surf","lat":41.93450366,"lng":-87.63926562},{"id":"1150","name":"Sheridan & Oakdale","lat":41.93576986,"lng":-87.63933276},{"id":"1151","name":"Sheridan & Wellington","lat":41.93676486,"lng":-87.63936476},{"id":"1152","name":"Sheridan & Barry","lat":41.93788934,"lng":-87.63940466},{"id":"1153","name":"Sheridan & Briar","lat":41.93870211,"lng":-87.63943264},{"id":"1154","name":"Sheridan & Belmont","lat":41.94003295,"lng":-87.6395069},{"id":"1155","name":"Inner Lake Shore Drive & Belmont","lat":41.94037961,"lng":-87.6394848},{"id":"1157","name":"Lake Shore & Roscoe","lat":41.94353748,"lng":-87.64048074},{"id":"1160","name":"Lake Shore & Cornelia","lat":41.94682456,"lng":-87.64231525},{"id":"1161","name":"Lake Shore & Brompton","lat":41.94780477,"lng":-87.64292463},{"id":"1162","name":"Lake Shore & Addison","lat":41.94882951,"lng":-87.64347934},{"id":"1163","name":"Lake Shore & Waveland","lat":41.9504367,"lng":-87.64449708},{"id":"1164","name":"Lake Shore & W. Sheridan (3900 N)","lat":41.95294662,"lng":-87.6452072},{"id":"1165","name":"Sheridan & Pine Grove","lat":41.95293381,"lng":-87.64804865},{"id":"1166","name":"Sheridan & Broadway","lat":41.95280178,"lng":-87.65006},{"id":"1167","name":"Sheridan & Fremont","lat":41.95277054,"lng":-87.65234587},{"id":"1168","name":"Sheridan & Byron","lat":41.95287897,"lng":-87.65442944},{"id":"1169","name":"Sheridan & Dakin","lat":41.95381946,"lng":-87.65446282},{"id":"1170","name":"Sheridan & Irving Park","lat":41.95465369,"lng":-87.65448322},{"id":"1171","name":"Sheridan & Belle Plaine","lat":41.95668273,"lng":-87.65453845},{"id":"1173","name":"4225 N Sheridan","lat":41.95916653,"lng":-87.65459424},{"id":"1174","name":"Sheridan & Broadway/Montrose","lat":41.96146363,"lng":-87.65467309},{"id":"1175","name":"Sheridan & Montrose","lat":41.96196087,"lng":-87.65465976},{"id":"1177","name":"Sheridan & Wilson","lat":41.96534887,"lng":-87.65471577},{"id":"1178","name":"Sheridan & Leland","lat":41.96718987,"lng":-87.65473877},{"id":"1179","name":"Sheridan & Lawrence","lat":41.96925775,"lng":-87.65475935},{"id":"1180","name":"Sheridan & Gunnison","lat":41.97026714,"lng":-87.6547842},{"id":"1181","name":"Sheridan & Ainslie","lat":41.97175287,"lng":-87.65481377},{"id":"1182","name":"Sheridan & Argyle","lat":41.97348387,"lng":-87.65485577},{"id":"1183","name":"Sheridan & Winona","lat":41.97545887,"lng":-87.65490277},{"id":"1184","name":"Sheridan & Foster","lat":41.97662787,"lng":-87.65490177},{"id":"1185","name":"Sheridan & Berwyn","lat":41.97820992,"lng":-87.65493766},{"id":"1186","name":"Sheridan & Balmoral","lat":41.98011087,"lng":-87.65502477},{"id":"1187","name":"Sheridan & Catalpa","lat":41.98180087,"lng":-87.65507977},{"id":"1188","name":"Sheridan & Bryn Mawr","lat":41.98360187,"lng":-87.65511877},{"id":"1189","name":"Sheridan & Hollywood","lat":41.98544187,"lng":-87.65517677},{"id":"1190","name":"Sheridan & Ardmore","lat":41.98752787,"lng":-87.65522877},{"id":"1191","name":"Sheridan & Thorndale","lat":41.99027987,"lng":-87.65531377},{"id":"1192","name":"Sheridan & Glenlake","lat":41.99253087,"lng":-87.65538377},{"id":"1198","name":"Sheridan & Granville","lat":41.99478287,"lng":-87.65545277},{"id":"1199","name":"Sheridan & Rosemont","lat":41.99659987,"lng":-87.65550877},{"id":"1200","name":"Sheridan & Kenmore","lat":41.99833948,"lng":-87.65694133},{"id":"1201","name":"Sheridan & Winthrop","lat":41.99828173,"lng":-87.65835463},{"id":"1203","name":"Sheridan & Arthur (Red Line)","lat":42.00038996,"lng":-87.66060636},{"id":"1204","name":"Sheridan & Loyola","lat":42.00170987,"lng":-87.66066377},{"id":"1206","name":"Sheridan & North Shore","lat":42.00387887,"lng":-87.66072259},{"id":"1208","name":"Sheridan & Pratt","lat":42.00572787,"lng":-87.66085377},{"id":"1210","name":"Sheridan & Morse","lat":42.00814087,"lng":-87.66160377},{"id":"1211","name":"Sheridan & Lunt","lat":42.00936587,"lng":-87.66200077},{"id":"1213","name":"Sheridan & Estes","lat":42.01166787,"lng":-87.66280877},{"id":"1214","name":"Sheridan & Touhy","lat":42.01301288,"lng":-87.66338077},{"id":"1215","name":"Sheridan & Chase","lat":42.01412088,"lng":-87.66399977},{"id":"1216","name":"Sheridan & Sherwin","lat":42.01521742,"lng":-87.66468025},{"id":"1217","name":"Sheridan & Jarvis","lat":42.01627588,"lng":-87.66502377},{"id":"1220","name":"Howard & Sheridan","lat":42.01931326,"lng":-87.66630727},{"id":"1224","name":"Fullerton & Halsted","lat":41.92552247,"lng":-87.64943333},{"id":"1225","name":"Fullerton Red/Brown/Purple Line Station","lat":41.92546369,"lng":-87.65277662},{"id":"1227","name":"Fullerton & Racine","lat":41.92537986,"lng":-87.65834376},{"id":"1228","name":"Fullerton & Surrey Court","lat":41.92533386,"lng":-87.66027776},{"id":"1233","name":"Fullerton & Riverfront Mall (1800 W)","lat":41.92519432,"lng":-87.672669},{"id":"1236","name":"Fullerton & Damen","lat":41.92511687,"lng":-87.67817679},{"id":"1238","name":"Fullerton & Oakley","lat":41.92498164,"lng":-87.68512482},{"id":"1240","name":"Fullerton & Campbell","lat":41.92496689,"lng":-87.68999633},{"id":"1241","name":"Fullerton & Rockwell","lat":41.9249692,"lng":-87.69237973},{"id":"1242","name":"Fullerton & Washtenaw","lat":41.92490167,"lng":-87.69485963},{"id":"1243","name":"Fullerton & California","lat":41.92492559,"lng":-87.69726357},{"id":"1246","name":"Fullerton & Albany","lat":41.92482724,"lng":-87.70440965},{"id":"1248","name":"Fullerton & Kedzie","lat":41.92486429,"lng":-87.70764902},{"id":"1249","name":"Fullerton & Spaulding","lat":41.92477659,"lng":-87.71055245},{"id":"1250","name":"Fullerton & Kimball","lat":41.92479423,"lng":-87.71187335},{"id":"1251","name":"Fullerton & St. Louis","lat":41.924709,"lng":-87.7142355},{"id":"1252","name":"Fullerton & Central Park","lat":41.92469324,"lng":-87.71686966},{"id":"1253","name":"Fullerton & Lawndale","lat":41.92469323,"lng":-87.71936867},{"id":"1255","name":"Fullerton & Hamlin","lat":41.92465896,"lng":-87.72190855},{"id":"1256","name":"Fullerton & Springfield","lat":41.92457902,"lng":-87.7242038},{"id":"1257","name":"Fullerton & Pulaski","lat":41.92460499,"lng":-87.72659582},{"id":"1258","name":"Fullerton & Karlov","lat":41.92452018,"lng":-87.72911032},{"id":"1259","name":"Fullerton & Keeler","lat":41.9245344,"lng":-87.73154575},{"id":"1260","name":"Fullerton & Tripp","lat":41.92453539,"lng":-87.73281376},{"id":"1261","name":"Fullerton & Kildare","lat":41.92447166,"lng":-87.73395814},{"id":"1262","name":"Fullerton & Kostner","lat":41.92446448,"lng":-87.73648398},{"id":"1263","name":"Fullerton & Kilbourn","lat":41.92442698,"lng":-87.73891985},{"id":"1264","name":"Fullerton & Kenton","lat":41.92438876,"lng":-87.74128923},{"id":"1265","name":"Fullerton & Kilpatrick","lat":41.9243588,"lng":-87.7437078},{"id":"1267","name":"Fullerton & Lamon","lat":41.92426881,"lng":-87.7486529},{"id":"1269","name":"Fullerton & Leclaire","lat":41.92422597,"lng":-87.75351703},{"id":"1270","name":"Fullerton & Laramie","lat":41.92419465,"lng":-87.75594439},{"id":"1271","name":"Fullerton & Lockwood","lat":41.92415264,"lng":-87.7585794},{"id":"1272","name":"Fullerton & Long","lat":41.92413821,"lng":-87.76098806},{"id":"1273","name":"Fullerton & Linder","lat":41.92407495,"lng":-87.76341886},{"id":"1275","name":"Fullerton & Major","lat":41.92407694,"lng":-87.76822188},{"id":"1278","name":"Fullerton & Austin","lat":41.92394548,"lng":-87.77559441},{"id":"1279","name":"Fullerton & Meade","lat":41.92387138,"lng":-87.77804838},{"id":"1282","name":"Fullerton & Narragansett","lat":41.92379671,"lng":-87.7852903},{"id":"1283","name":"6450 W Fullerton","lat":41.9237826,"lng":-87.7870086},{"id":"1286","name":"6450 W Fullerton","lat":41.92361783,"lng":-87.78686275},{"id":"1287","name":"2500 N Narragansett","lat":41.92556085,"lng":-87.7854318},{"id":"1289","name":"2500 N Narragansett","lat":41.92586586,"lng":-87.78560573},{"id":"1291","name":"Fullerton & Mobile","lat":41.92365103,"lng":-87.78309104},{"id":"1295","name":"Fullerton & Marmora","lat":41.9237652,"lng":-87.77335666},{"id":"1296","name":"Fullerton & Menard","lat":41.92382935,"lng":-87.77096266},{"id":"1299","name":"Fullerton & Linder","lat":41.92395485,"lng":-87.76362679},{"id":"1301","name":"Fullerton & Lockwood","lat":41.92401685,"lng":-87.75871179},{"id":"1302","name":"Fullerton & Laramie","lat":41.92404985,"lng":-87.75623979},{"id":"1303","name":"Fullerton & Leclaire","lat":41.92405979,"lng":-87.75380526},{"id":"1304","name":"Fullerton & Lavergne","lat":41.92409368,"lng":-87.75133177},{"id":"1305","name":"Fullerton & Lamon","lat":41.92408487,"lng":-87.74886441},{"id":"1306","name":"Fullerton & Cicero","lat":41.92412034,"lng":-87.74650105},{"id":"1307","name":"Fullerton & Kilpatrick","lat":41.92415087,"lng":-87.74397941},{"id":"1308","name":"Fullerton & Kenton","lat":41.92425086,"lng":-87.74161779},{"id":"1309","name":"Fullerton & Kilbourn","lat":41.92426002,"lng":-87.73909321},{"id":"1310","name":"Fullerton & Kostner","lat":41.92431486,"lng":-87.73668279},{"id":"1311","name":"Fullerton & Kildare","lat":41.92434486,"lng":-87.73423079},{"id":"1312","name":"Fullerton & Tripp","lat":41.92435986,"lng":-87.73300779},{"id":"1313","name":"Fullerton & Keeler","lat":41.92437486,"lng":-87.73178178},{"id":"1314","name":"Fullerton & Karlov","lat":41.92440086,"lng":-87.72934278},{"id":"1315","name":"Fullerton & Pulaski","lat":41.92436138,"lng":-87.72696266},{"id":"1316","name":"Fullerton & Springfield","lat":41.92439488,"lng":-87.72441268},{"id":"1317","name":"Fullerton & Hamlin","lat":41.92442288,"lng":-87.72198168},{"id":"1319","name":"Fullerton & Lawndale","lat":41.92445188,"lng":-87.71953568},{"id":"1320","name":"Fullerton & Central Park","lat":41.92448088,"lng":-87.71708068},{"id":"1321","name":"Fullerton & St. Louis","lat":41.92450288,"lng":-87.71465969},{"id":"1322","name":"Fullerton & Kimball","lat":41.92455059,"lng":-87.71227429},{"id":"1323","name":"Fullerton & Spaulding","lat":41.92462986,"lng":-87.71088178},{"id":"1324","name":"Fullerton & Kedzie","lat":41.92462568,"lng":-87.70765251},{"id":"1326","name":"Fullerton & Albany","lat":41.92468786,"lng":-87.70475178},{"id":"1327","name":"Fullerton & Sacramento","lat":41.92470986,"lng":-87.70242778},{"id":"1329","name":"Fullerton & California","lat":41.92470593,"lng":-87.69756791},{"id":"1330","name":"Fullerton & Washtenaw","lat":41.92474133,"lng":-87.69544241},{"id":"1332","name":"Fullerton & Campbell","lat":41.92480191,"lng":-87.69016349},{"id":"1333","name":"Fullerton & Western","lat":41.9248138,"lng":-87.68782397},{"id":"1334","name":"Fullerton & Oakley","lat":41.9248402,"lng":-87.68526325},{"id":"1339","name":"Fullerton & Wood","lat":41.92503479,"lng":-87.67279628},{"id":"1340","name":"Fullerton & Clybourn","lat":41.92506032,"lng":-87.66939611},{"id":"1345","name":"Fullerton & Racine","lat":41.92526813,"lng":-87.65861712},{"id":"1346","name":"Fullerton & Seminary","lat":41.92530713,"lng":-87.65608212},{"id":"1347","name":"Fullerton & Sheffield","lat":41.9253259,"lng":-87.65335938},{"id":"1348","name":"Fullerton & Halsted/Lincoln","lat":41.92538902,"lng":-87.64897269},{"id":"1349","name":"Halsted & Belden","lat":41.92370886,"lng":-87.64878276},{"id":"1350","name":"Webster & Halsted","lat":41.9217712,"lng":-87.64843715},{"id":"1351","name":"Webster & Orchard","lat":41.92180958,"lng":-87.6462096},{"id":"1352","name":"Lincoln & Webster","lat":41.92221756,"lng":-87.64411368},{"id":"1353","name":"Lincoln & Belden/Orchard","lat":41.92359694,"lng":-87.64591594},{"id":"1354","name":"Devon & Kedzie Terminal","lat":41.9979343,"lng":-87.7095452},{"id":"1355","name":"McCormick & Devon","lat":41.99707714,"lng":-87.7118178},{"id":"1356","name":"Lincoln & McCormick/Kimball","lat":41.99404496,"lng":-87.71352034},{"id":"1357","name":"Lincoln & Jersey","lat":41.99252235,"lng":-87.71104552},{"id":"1358","name":"Lincoln & Kedzie","lat":41.99116786,"lng":-87.70884339},{"id":"1359","name":"Lincoln & Peterson","lat":41.99014329,"lng":-87.70716738},{"id":"1360","name":"Lincoln & Whipple","lat":41.98901587,"lng":-87.70526478},{"id":"1361","name":"Lincoln & Sacramento","lat":41.98831787,"lng":-87.70406678},{"id":"1362","name":"Lincoln & Francisco","lat":41.98678587,"lng":-87.70149478},{"id":"1363","name":"Lincoln & California","lat":41.98549602,"lng":-87.69935776},{"id":"1364","name":"Lincoln & Washtenaw","lat":41.98400757,"lng":-87.69683086},{"id":"1365","name":"Lincoln & Bryn Mawr","lat":41.9832555,"lng":-87.69553207},{"id":"1367","name":"Lincoln & Balmoral","lat":41.97954887,"lng":-87.69274478},{"id":"1372","name":"Lincoln & Argyle","lat":41.97193287,"lng":-87.69074078},{"id":"1400","name":"Lincoln & Belden/Orchard","lat":41.92381491,"lng":-87.64660832},{"id":"1401","name":"Lincoln & Webster","lat":41.92201801,"lng":-87.64410382},{"id":"1402","name":"Lincoln & Dickens/Cleveland","lat":41.92022052,"lng":-87.64160822},{"id":"1403","name":"Lincoln & Armitage/Sedgwick","lat":41.91844611,"lng":-87.63911664},{"id":"1405","name":"Armitage & Clark","lat":41.91837617,"lng":-87.63627052},{"id":"1409","name":"Clark & Menomonee","lat":41.91490086,"lng":-87.63404808},{"id":"1410","name":"LaSalle & Eugenie","lat":41.91261175,"lng":-87.63332563},{"id":"1411","name":"LaSalle & North Ave","lat":41.9108188,"lng":-87.63330181},{"id":"1412","name":"LaSalle & Burton","lat":41.90898186,"lng":-87.63317475},{"id":"1413","name":"LaSalle & Schiller","lat":41.90751483,"lng":-87.63317666},{"id":"1414","name":"LaSalle & Goethe","lat":41.90558033,"lng":-87.63311906},{"id":"1415","name":"LaSalle & Division","lat":41.9036596,"lng":-87.63305815},{"id":"1417","name":"LaSalle & Oak","lat":41.90033486,"lng":-87.63294775},{"id":"1418","name":"LaSalle & Delaware","lat":41.89900886,"lng":-87.63291175},{"id":"1419","name":"LaSalle & Chestnut","lat":41.89789886,"lng":-87.63288075},{"id":"1421","name":"Wacker (Upper) & Michigan","lat":41.88836786,"lng":-87.62506075},{"id":"1423","name":"State & Lake","lat":41.88590086,"lng":-87.62805875},{"id":"1425","name":"State & Washington","lat":41.88337885,"lng":-87.62797775},{"id":"1427","name":"State & Monroe","lat":41.88086385,"lng":-87.62783975},{"id":"1429","name":"State & Jackson","lat":41.87832585,"lng":-87.62777575},{"id":"1430","name":"State & Van Buren","lat":41.87700065,"lng":-87.62776972},{"id":"1431","name":"State & Harrison/Ida B Wells Drive ","lat":41.87500459,"lng":-87.62770176},{"id":"1437","name":"State & Randolph","lat":41.88435886,"lng":-87.62779675},{"id":"1438","name":"State & Lake","lat":41.88560886,"lng":-87.62782875},{"id":"1439","name":"State & E. Wacker","lat":41.88669686,"lng":-87.62783675},{"id":"1443","name":"LaSalle & Delaware","lat":41.899298,"lng":-87.63264746},{"id":"1444","name":"LaSalle & Oak","lat":41.90063664,"lng":-87.63266939},{"id":"1445","name":"LaSalle & Maple","lat":41.9020331,"lng":-87.63274339},{"id":"1446","name":"LaSalle & Division","lat":41.90402808,"lng":-87.63279016},{"id":"1447","name":"LaSalle & Goethe","lat":41.90592796,"lng":-87.63285846},{"id":"1448","name":"LaSalle & Schiller","lat":41.90791073,"lng":-87.63292076},{"id":"1449","name":"LaSalle & Burton","lat":41.90901156,"lng":-87.63296858},{"id":"1450","name":"LaSalle & North Ave","lat":41.91104182,"lng":-87.63298953},{"id":"1451","name":"Clark & LaSalle","lat":41.91341686,"lng":-87.63286275},{"id":"1456","name":"Lincoln & Dickens/Cleveland","lat":41.92000115,"lng":-87.64086006},{"id":"1486","name":"Ainslie & Western","lat":41.97046929,"lng":-87.68945477},{"id":"1487","name":"Lincoln & Argyle","lat":41.97192554,"lng":-87.69055162},{"id":"1491","name":"Lincoln & Berwyn","lat":41.97766587,"lng":-87.69251078},{"id":"1492","name":"Lincoln & Balmoral","lat":41.97949287,"lng":-87.69267178},{"id":"1493","name":"Lincoln & Catalpa","lat":41.98124823,"lng":-87.69274252},{"id":"1494","name":"Lincoln & Bryn Mawr","lat":41.98305698,"lng":-87.69474187},{"id":"1495","name":"Lincoln & Washtenaw","lat":41.98434468,"lng":-87.69695601},{"id":"1497","name":"Lincoln & Francisco","lat":41.98693187,"lng":-87.70138378},{"id":"1498","name":"Lincoln & Richmond","lat":41.98796787,"lng":-87.70315578},{"id":"1499","name":"Lincoln & Sacramento","lat":41.98870887,"lng":-87.70439078},{"id":"1500","name":"Lincoln & Whipple","lat":41.98938504,"lng":-87.70545694},{"id":"1502","name":"Lincoln & Peterson","lat":41.99024362,"lng":-87.70688443},{"id":"1503","name":"Lincoln & Kedzie","lat":41.99142222,"lng":-87.70885572},{"id":"1504","name":"Lincoln & Jersey","lat":41.99307213,"lng":-87.71141835},{"id":"1505","name":"Lincoln & McCormick/Kimball","lat":41.99449121,"lng":-87.71367345},{"id":"1507","name":"McCormick & Devon","lat":41.99716575,"lng":-87.71151103},{"id":"1509","name":"Stony Island & 63rd Street","lat":41.78095784,"lng":-87.58637573},{"id":"1512","name":"Stony Island & 60th Street","lat":41.78602617,"lng":-87.58649812},{"id":"1513","name":"Stony Island & 59th Street","lat":41.78809199,"lng":-87.58653887},{"id":"1514","name":"5800 S Stony Island","lat":41.78962784,"lng":-87.58658073},{"id":"1515","name":"Stony Island & 57th Drive","lat":41.79134784,"lng":-87.58663573},{"id":"1517","name":"S Hyde Park & 56th Street","lat":41.79332371,"lng":-87.58380801},{"id":"1518","name":"S Hyde Park & 55th Street","lat":41.79543727,"lng":-87.58388592},{"id":"1519","name":"5440 S S Hyde Park","lat":41.79679583,"lng":-87.58390463},{"id":"1520","name":"S Hyde Park & 54th Street","lat":41.7983581,"lng":-87.58395435},{"id":"1521","name":"S Hyde Park & 53rd Street","lat":41.79947596,"lng":-87.5839665},{"id":"1522","name":"5200 S S Hyde Park","lat":41.80085439,"lng":-87.58443019},{"id":"1523","name":"E Hyde Park & East End","lat":41.80257334,"lng":-87.58571276},{"id":"1524","name":"E Hyde Park & Cornell","lat":41.80254484,"lng":-87.58671573},{"id":"1525","name":"E Hyde Park & Lake Park","lat":41.80253484,"lng":-87.58826773},{"id":"1527","name":"E Hyde Park & Dorchester","lat":41.8024764,"lng":-87.59214461},{"id":"1528","name":"E Hyde Park & Kenwood","lat":41.80245984,"lng":-87.59358273},{"id":"1529","name":"E Hyde Park & Kimbark","lat":41.80244507,"lng":-87.59533282},{"id":"1530","name":"E Hyde Park & Woodlawn","lat":41.80242326,"lng":-87.59705476},{"id":"1533","name":"E Hyde Park & Ellis","lat":41.80236479,"lng":-87.60228565},{"id":"1535","name":"51st Street & Cottage Grove","lat":41.80230105,"lng":-87.60671898},{"id":"1536","name":"51st Street & Evans","lat":41.80229598,"lng":-87.60785676},{"id":"1537","name":"51st Street & Champlain","lat":41.80224984,"lng":-87.60989074},{"id":"1538","name":"51st Street & St. Lawrence","lat":41.8022137,"lng":-87.61116902},{"id":"1539","name":"51st Street & Forrestville","lat":41.8021839,"lng":-87.61259035},{"id":"1540","name":"51st Street & King Drive","lat":41.80218784,"lng":-87.61548574},{"id":"1541","name":"51st Street & King Drive","lat":41.80217144,"lng":-87.61682905},{"id":"1542","name":"51st Green Line Station","lat":41.80209049,"lng":-87.61856488},{"id":"1543","name":"51st Street & Indiana","lat":41.80211132,"lng":-87.62093869},{"id":"1554","name":"Indiana Green Line Station","lat":41.8219516,"lng":-87.62144351},{"id":"1560","name":"Indiana & 34th Street","lat":41.83298285,"lng":-87.62171274},{"id":"1562","name":"Indiana & 32nd Street","lat":41.83643785,"lng":-87.62176374},{"id":"1563","name":"Indiana & 31st Street","lat":41.83825585,"lng":-87.62183074},{"id":"1564","name":"3000 S Michigan","lat":41.84060985,"lng":-87.62312074},{"id":"1565","name":"Michigan & 29th Street","lat":41.84188985,"lng":-87.62324574},{"id":"1566","name":"Michigan & 28th Street","lat":41.84363785,"lng":-87.62325374},{"id":"1567","name":"Michigan & 26th Street","lat":41.8458955,"lng":-87.62332593},{"id":"1568","name":"Michigan & 25th Street","lat":41.84732085,"lng":-87.62350575},{"id":"1570","name":"Michigan & 23rd Street","lat":41.85115718,"lng":-87.62359165},{"id":"1573","name":"Michigan & 21st Street","lat":41.8545283,"lng":-87.62374702},{"id":"1574","name":"Michigan & Cullerton","lat":41.85571821,"lng":-87.62377619},{"id":"1575","name":"Michigan & 18th Street","lat":41.85813463,"lng":-87.62383315},{"id":"1579","name":"Michigan & 13th Street","lat":41.86599158,"lng":-87.62400465},{"id":"1580","name":"Michigan & Roosevelt","lat":41.86790056,"lng":-87.62396984},{"id":"1581","name":"Michigan & 11th Street","lat":41.86915256,"lng":-87.62397025},{"id":"1582","name":"Michigan & 9th Street","lat":41.87051049,"lng":-87.62401209},{"id":"1583","name":"Michigan & 8th Street","lat":41.87179469,"lng":-87.62403975},{"id":"1584","name":"Michigan & Balbo","lat":41.87340285,"lng":-87.62408775},{"id":"1586","name":"Michigan & Harrison","lat":41.87456745,"lng":-87.62437947},{"id":"1587","name":"Michigan & Balbo","lat":41.87329585,"lng":-87.62433475},{"id":"1588","name":"Michigan & 8th Street","lat":41.87201385,"lng":-87.62430975},{"id":"1589","name":"Michigan & 9th Street","lat":41.87029565,"lng":-87.62427657},{"id":"1590","name":"Michigan & 11th Street","lat":41.86909885,"lng":-87.62428375},{"id":"1591","name":"Michigan & Roosevelt","lat":41.86712796,"lng":-87.62426473},{"id":"1592","name":"Michigan & 13th Street","lat":41.8656027,"lng":-87.62423267},{"id":"1593","name":"Michigan & 14th Street","lat":41.86389085,"lng":-87.62419075},{"id":"1595","name":"Michigan & 16th Street","lat":41.85995246,"lng":-87.62409992},{"id":"1596","name":"Michigan & 18th Street","lat":41.85765363,"lng":-87.62404682},{"id":"1597","name":"Michigan & Cullerton","lat":41.85534841,"lng":-87.62399841},{"id":"1598","name":"Michigan & 21st Street","lat":41.85400371,"lng":-87.62396845},{"id":"1599","name":"Michigan & Cermak","lat":41.8525207,"lng":-87.6239148},{"id":"1602","name":"Michigan & 25th Street","lat":41.84716429,"lng":-87.62377257},{"id":"1603","name":"Michigan & 26th Street","lat":41.84547219,"lng":-87.62372217},{"id":"1604","name":"Michigan & 28th Street","lat":41.84313628,"lng":-87.62366253},{"id":"1605","name":"Michigan & 29th Street","lat":41.84174704,"lng":-87.6236298},{"id":"1606","name":"3000 S Michigan","lat":41.84048785,"lng":-87.62355074},{"id":"1607","name":"Michigan & 31st Street","lat":41.83819823,"lng":-87.62359705},{"id":"1608","name":"Michigan & 32nd Street","lat":41.83622985,"lng":-87.62347074},{"id":"1609","name":"Michigan & 33rd Street","lat":41.83450586,"lng":-87.62344105},{"id":"1610","name":"Michigan & 34th Street","lat":41.83276285,"lng":-87.62336274},{"id":"1616","name":"4016 S Michigan","lat":41.82150084,"lng":-87.62322074},{"id":"1627","name":"51st Street & Michigan","lat":41.80197202,"lng":-87.62253713},{"id":"1628","name":"51st Street & Indiana","lat":41.80197222,"lng":-87.62116022},{"id":"1629","name":"51st Green Line Station","lat":41.80194995,"lng":-87.61856773},{"id":"1631","name":"51st Street & King Drive","lat":41.80204661,"lng":-87.61574705},{"id":"1632","name":"51st Street & Forrestville","lat":41.80208084,"lng":-87.61252374},{"id":"1633","name":"51st Street & St. Lawrence","lat":41.80211584,"lng":-87.61145074},{"id":"1634","name":"51st Street & Champlain","lat":41.80215141,"lng":-87.61001359},{"id":"1635","name":"51st Street & Evans","lat":41.80216584,"lng":-87.60791373},{"id":"1636","name":"51st Street & Cottage Grove","lat":41.8021984,"lng":-87.60658511},{"id":"1637","name":"51st Street & Drexel Square","lat":41.80223128,"lng":-87.60438518},{"id":"1638","name":"E Hyde Park & Drexel","lat":41.80223917,"lng":-87.60355559},{"id":"1639","name":"E Hyde Park & Ellis","lat":41.8022703,"lng":-87.60110052},{"id":"1642","name":"E Hyde Park & Woodlawn","lat":41.80232135,"lng":-87.59645458},{"id":"1643","name":"E Hyde Park & Kimbark","lat":41.80234687,"lng":-87.59488193},{"id":"1644","name":"E Hyde Park & Kenwood","lat":41.80236487,"lng":-87.59324493},{"id":"1645","name":"E Hyde Park & Dorchester","lat":41.80237562,"lng":-87.59164021},{"id":"1646","name":"E Hyde Park & Blackstone","lat":41.8023947,"lng":-87.59017165},{"id":"1647","name":"E Hyde Park & Lake Park","lat":41.80242084,"lng":-87.58808873},{"id":"1648","name":"E Hyde Park & Cornell","lat":41.80244857,"lng":-87.586263},{"id":"1649","name":"S Hyde Park & E. Hyde Park Blvd.","lat":41.80224678,"lng":-87.58516177},{"id":"1650","name":"5200 S S Hyde Park","lat":41.80104084,"lng":-87.58462373},{"id":"1651","name":"S Hyde Park & 53rd Street","lat":41.79940164,"lng":-87.58412239},{"id":"1652","name":"S Hyde Park & 54th Street","lat":41.79792084,"lng":-87.58406373},{"id":"1653","name":"5440 S S Hyde Park","lat":41.79677202,"lng":-87.58404943},{"id":"1654","name":"S Hyde Park & 55th Street","lat":41.79499456,"lng":-87.58402604},{"id":"1655","name":"S Hyde Park & 56th Street","lat":41.79350976,"lng":-87.58395419},{"id":"1656","name":"Stony Island & 57th Street","lat":41.79122284,"lng":-87.58678073},{"id":"1658","name":"Stony Island & 59th Street","lat":41.78806584,"lng":-87.58672073},{"id":"1659","name":"Stony Island & 60th Street","lat":41.78584559,"lng":-87.58668221},{"id":"1661","name":"Stony Island & 62nd Street","lat":41.78279803,"lng":-87.58661398},{"id":"1664","name":"Western & Winnemac","lat":41.97295227,"lng":-87.6889086},{"id":"1668","name":"Western & Balmoral","lat":41.97953045,"lng":-87.68918849},{"id":"1669","name":"Western & Catalpa","lat":41.98125048,"lng":-87.68922736},{"id":"1670","name":"Western & Bryn Mawr","lat":41.9834497,"lng":-87.68933412},{"id":"1671","name":"Western & Hollywood","lat":41.98487811,"lng":-87.68936247},{"id":"1672","name":"Western & Ardmore","lat":41.98688374,"lng":-87.68946702},{"id":"1673","name":"Western & Thorndale","lat":41.98851581,"lng":-87.68948592},{"id":"1675","name":"Western & Glenlake","lat":41.99218487,"lng":-87.68961278},{"id":"1676","name":"Western & Granville","lat":41.99400487,"lng":-87.68968678},{"id":"1677","name":"Western & Rosemont","lat":41.99582587,"lng":-87.68973578},{"id":"1679","name":"Western & Arthur","lat":41.99945987,"lng":-87.68985878},{"id":"1680","name":"Western & Albion","lat":42.00130348,"lng":-87.68989394},{"id":"1681","name":"Western & North Shore","lat":42.00326487,"lng":-87.68994178},{"id":"1682","name":"Western & Pratt","lat":42.00493472,"lng":-87.68992931},{"id":"1683","name":"Western & Morse","lat":42.00707187,"lng":-87.69004878},{"id":"1684","name":"Western & Lunt","lat":42.00852577,"lng":-87.69005063},{"id":"1686","name":"Western & Estes","lat":42.01083187,"lng":-87.69014078},{"id":"1688","name":"Western & Chase","lat":42.01403087,"lng":-87.69015478},{"id":"1689","name":"Western & Jarvis","lat":42.01559771,"lng":-87.69014104},{"id":"1690","name":"Western & Birchwood","lat":42.01735559,"lng":-87.69010516},{"id":"1691","name":"Western & Birchwood Terminal","lat":42.0182385,"lng":-87.68976534},{"id":"1693","name":"Western & Jarvis","lat":42.01598887,"lng":-87.69028278},{"id":"1694","name":"Western & Chase","lat":42.01404587,"lng":-87.69030178},{"id":"1696","name":"Western & Estes","lat":42.01098387,"lng":-87.69028678},{"id":"1698","name":"Western & Lunt","lat":42.00874702,"lng":-87.69028416},{"id":"1699","name":"Western & Morse","lat":42.00694654,"lng":-87.69017907},{"id":"1700","name":"Western & Pratt","lat":42.0051463,"lng":-87.69023996},{"id":"1701","name":"Western & North Shore","lat":42.00327693,"lng":-87.69014564},{"id":"1702","name":"Western & Albion","lat":42.00145487,"lng":-87.69005178},{"id":"1703","name":"Western & Arthur","lat":41.99962587,"lng":-87.69000478},{"id":"1705","name":"Western & Rosemont","lat":41.99599457,"lng":-87.68996042},{"id":"1706","name":"Western & Granville","lat":41.99418761,"lng":-87.68991129},{"id":"1707","name":"Western & Glenlake","lat":41.99236014,"lng":-87.68984509},{"id":"1708","name":"Western & Peterson","lat":41.99065471,"lng":-87.68982751},{"id":"1709","name":"Western & Thorndale","lat":41.98870487,"lng":-87.68975078},{"id":"1710","name":"Western & Ardmore","lat":41.98688687,"lng":-87.68969678},{"id":"1711","name":"Western & Hollywood","lat":41.98505787,"lng":-87.68961478},{"id":"1713","name":"Western & Catalpa","lat":41.98149373,"lng":-87.68948042},{"id":"1714","name":"Western & Balmoral","lat":41.9796036,"lng":-87.68940906},{"id":"1715","name":"Western & Berwyn","lat":41.97841629,"lng":-87.68936211},{"id":"1719","name":"Western & Winnemac","lat":41.97310216,"lng":-87.68921192},{"id":"1721","name":"Devon & Kedzie","lat":41.99733457,"lng":-87.70905535},{"id":"1722","name":"Devon & Albany","lat":41.99730449,"lng":-87.70703879},{"id":"1724","name":"Devon & Francisco","lat":41.9974434,"lng":-87.70221374},{"id":"1725","name":"Devon & California","lat":41.99750968,"lng":-87.69980606},{"id":"1726","name":"Devon & Washtenaw","lat":41.9975284,"lng":-87.69735174},{"id":"1728","name":"Devon & Campbell","lat":41.99763462,"lng":-87.69231873},{"id":"1729","name":"Devon & Western","lat":41.99765338,"lng":-87.69009602},{"id":"1730","name":"Devon & Oakley","lat":41.99770784,"lng":-87.68753303},{"id":"1732","name":"Devon & Hoyne","lat":41.99775509,"lng":-87.68267966},{"id":"1736","name":"Devon & Hermitage","lat":41.99796192,"lng":-87.67359832},{"id":"1739","name":"Devon & Clark","lat":41.99801979,"lng":-87.67021778},{"id":"1740","name":"Devon & Greenview","lat":41.99804699,"lng":-87.66803552},{"id":"1741","name":"Devon & Glenwood","lat":41.99807299,"lng":-87.66559552},{"id":"1743","name":"Devon & Lakewood","lat":41.99809899,"lng":-87.66318852},{"id":"1744","name":"Devon & Magnolia","lat":41.99810999,"lng":-87.66161852},{"id":"1746","name":"Pratt & Sheridan","lat":42.0056343,"lng":-87.66119519},{"id":"1747","name":"Pratt & Lakewood","lat":42.00554487,"lng":-87.66391077},{"id":"1748","name":"Pratt & Glenwood","lat":42.00551355,"lng":-87.66613107},{"id":"1749","name":"Pratt & Greenview","lat":42.00548593,"lng":-87.66787374},{"id":"1750","name":"Pratt & Ashland","lat":42.00545373,"lng":-87.66975299},{"id":"1752","name":"Ashland & Morse","lat":42.00775187,"lng":-87.66996477},{"id":"1753","name":"Morse & Greenview","lat":42.00780288,"lng":-87.66792148},{"id":"1754","name":"Morse & Glenwood (Red Line)","lat":42.00786837,"lng":-87.66563582},{"id":"1755","name":"Morse & Lakewood","lat":42.00788431,"lng":-87.66380288},{"id":"1756","name":"Morse & Sheridan","lat":42.0079105,"lng":-87.66178495},{"id":"1757","name":"Devon & Sheridan","lat":41.99825839,"lng":-87.66108036},{"id":"1758","name":"Devon & Lakewood","lat":41.99824676,"lng":-87.66292745},{"id":"1760","name":"Devon & Glenwood","lat":41.9982154,"lng":-87.66519838},{"id":"1761","name":"Devon & Greenview","lat":41.99819449,"lng":-87.66775759},{"id":"1762","name":"Devon & Clark","lat":41.99815579,"lng":-87.67037701},{"id":"1764","name":"Devon & Hermitage","lat":41.99806787,"lng":-87.67352578},{"id":"1768","name":"Devon & Hoyne","lat":41.99790487,"lng":-87.68249478},{"id":"1770","name":"Devon & Oakley","lat":41.99787556,"lng":-87.68736205},{"id":"1771","name":"Devon & Western","lat":41.99781048,"lng":-87.68967571},{"id":"1772","name":"Devon & Campbell","lat":41.99778057,"lng":-87.69220873},{"id":"1774","name":"Devon & Washtenaw","lat":41.99765821,"lng":-87.69696061},{"id":"1776","name":"Devon & Francisco","lat":41.99757253,"lng":-87.70197719},{"id":"1778","name":"Devon & Albany","lat":41.9974708,"lng":-87.70680616},{"id":"1779","name":"Devon & Kedzie","lat":41.99746648,"lng":-87.70919538},{"id":"1784","name":"Clark & Greenleaf","lat":42.01027987,"lng":-87.67431078},{"id":"1785","name":"Clark & Lunt","lat":42.00908769,"lng":-87.67407894},{"id":"1786","name":"Clark & Morse","lat":42.00787446,"lng":-87.67379738},{"id":"1790","name":"Clark & Albion","lat":42.00179291,"lng":-87.67198642},{"id":"1791","name":"Clark & Arthur","lat":41.9999567,"lng":-87.67132908},{"id":"1792","name":"Clark & Devon","lat":41.99818895,"lng":-87.67077837},{"id":"1793","name":"Clark & Rosemont","lat":41.99620887,"lng":-87.67030677},{"id":"1794","name":"Clark & Granville","lat":41.99452687,"lng":-87.67030077},{"id":"1799","name":"Clark & Edgewater","lat":41.98604933,"lng":-87.66945539},{"id":"1802","name":"Clark & Bryn Mawr","lat":41.98359212,"lng":-87.66887221},{"id":"1803","name":"Clark & Catalpa","lat":41.98175187,"lng":-87.66850777},{"id":"1805","name":"Clark & Berwyn","lat":41.97807287,"lng":-87.66840677},{"id":"1806","name":"Clark & Foster","lat":41.97628325,"lng":-87.66852062},{"id":"1811","name":"Clark & Leland","lat":41.96716287,"lng":-87.66719377},{"id":"1813","name":"Clark & Sunnyside","lat":41.96354387,"lng":-87.66641577},{"id":"1814","name":"Clark & Montrose","lat":41.96175205,"lng":-87.66608601},{"id":"1815","name":"Clark & Cullom","lat":41.9599204,"lng":-87.66538864},{"id":"1819","name":"3930 N Clark","lat":41.95353233,"lng":-87.66168264},{"id":"1820","name":"Clark & Byron","lat":41.95267034,"lng":-87.66101441},{"id":"1822","name":"Clark & Waveland","lat":41.94910559,"lng":-87.65813264},{"id":"1823","name":"Clark & Addison","lat":41.94736181,"lng":-87.65675563},{"id":"1824","name":"Clark & Cornelia","lat":41.94566228,"lng":-87.65536142},{"id":"1826","name":"Clark & Roscoe","lat":41.94361728,"lng":-87.65372542},{"id":"1827","name":"Clark & School/Aldine","lat":41.94189653,"lng":-87.65231664},{"id":"1828","name":"Clark & Belmont","lat":41.94008829,"lng":-87.65090882},{"id":"1830","name":"Clark & Wellington","lat":41.93652262,"lng":-87.64802742},{"id":"1834","name":"Clark & Drummond","lat":41.93073245,"lng":-87.64402605},{"id":"1836","name":"Clark & Deming","lat":41.92871974,"lng":-87.64242531},{"id":"1837","name":"Clark & Arlington","lat":41.92701948,"lng":-87.64151263},{"id":"1838","name":"Clark & Fullerton","lat":41.92565023,"lng":-87.64066447},{"id":"1839","name":"Clark & Belden","lat":41.92381723,"lng":-87.63952446},{"id":"1840","name":"Clark & Webster","lat":41.92205417,"lng":-87.63842047},{"id":"1841","name":"Clark & Dickens","lat":41.9202256,"lng":-87.63734206},{"id":"1843","name":"Clark & Wisconsin","lat":41.9167207,"lng":-87.63516946},{"id":"1845","name":"Clark & W. LaSalle Drive","lat":41.91322594,"lng":-87.63305944},{"id":"1846","name":"Clark & North Ave","lat":41.91131909,"lng":-87.63187467},{"id":"1847","name":"Clark & Burton","lat":41.90950486,"lng":-87.63172475},{"id":"1848","name":"Clark & Schiller","lat":41.90794486,"lng":-87.63167075},{"id":"1849","name":"Clark & Goethe","lat":41.90589086,"lng":-87.63158375},{"id":"1850","name":"Clark & Division (Red Line)","lat":41.90403086,"lng":-87.63153975},{"id":"1851","name":"Clark & Elm","lat":41.90325186,"lng":-87.63150775},{"id":"1852","name":"Clark & Maple","lat":41.90194886,"lng":-87.63147075},{"id":"1853","name":"Clark & Oak","lat":41.90066486,"lng":-87.63143175},{"id":"1854","name":"Clark & Delaware","lat":41.89936886,"lng":-87.63139175},{"id":"1855","name":"Clark & Chestnut","lat":41.89809286,"lng":-87.63136575},{"id":"1856","name":"Clark & Chicago","lat":41.89679986,"lng":-87.63132475},{"id":"1859","name":"Clark & Grand","lat":41.89175786,"lng":-87.63120275},{"id":"1865","name":"Clark & Randolph","lat":41.88428526,"lng":-87.63103435},{"id":"1869","name":"Clark & Adams","lat":41.87907585,"lng":-87.63087275},{"id":"1871","name":"Clark & Van Buren","lat":41.87665236,"lng":-87.63084914},{"id":"1873","name":"Clark & Harrison","lat":41.87464685,"lng":-87.63074975},{"id":"1875","name":"Dearborn & Polk","lat":41.87251296,"lng":-87.62905673},{"id":"1876","name":"Dearborn & Harrison","lat":41.87475085,"lng":-87.62913675},{"id":"1877","name":"Dearborn & Ida B Wells Drive","lat":41.87593485,"lng":-87.62915975},{"id":"1880","name":"Dearborn & Adams","lat":41.87956864,"lng":-87.62925341},{"id":"1881","name":"Dearborn & Monroe","lat":41.88095585,"lng":-87.62929075},{"id":"1882","name":"Dearborn & Madison","lat":41.88207815,"lng":-87.62929962},{"id":"1884","name":"Dearborn & Randolph","lat":41.88471585,"lng":-87.62939275},{"id":"1885","name":"Dearborn & Wacker/Lake","lat":41.88619143,"lng":-87.6294021},{"id":"1887","name":"Dearborn & Marina City","lat":41.88809986,"lng":-87.62945975},{"id":"1891","name":"Dearborn & Ontario","lat":41.89312986,"lng":-87.62960575},{"id":"1892","name":"Dearborn & Huron","lat":41.89474786,"lng":-87.62964275},{"id":"1895","name":"Dearborn & Delaware","lat":41.89904586,"lng":-87.62979075},{"id":"1898","name":"Clark & Maple","lat":41.90175186,"lng":-87.63131675},{"id":"1899","name":"Clark & Division (Red Line)","lat":41.90378986,"lng":-87.63136875},{"id":"1900","name":"Clark & Goethe","lat":41.90570586,"lng":-87.63143475},{"id":"1901","name":"Clark & Schiller","lat":41.90774886,"lng":-87.63149375},{"id":"1902","name":"Clark & Burton","lat":41.90935048,"lng":-87.63146407},{"id":"1905","name":"Clark & Lincoln","lat":41.915538,"lng":-87.63419314},{"id":"1906","name":"Clark & Wisconsin","lat":41.91655608,"lng":-87.63480236},{"id":"1907","name":"Clark & Armitage","lat":41.91839066,"lng":-87.63593082},{"id":"1908","name":"Clark & Dickens","lat":41.92008329,"lng":-87.63703664},{"id":"1909","name":"Clark & Webster","lat":41.92186611,"lng":-87.63813451},{"id":"1910","name":"Clark & Belden","lat":41.9236572,"lng":-87.63921544},{"id":"1911","name":"Clark & Fullerton","lat":41.92550739,"lng":-87.64027154},{"id":"1913","name":"Clark & Deming","lat":41.92863926,"lng":-87.64214729},{"id":"1915","name":"Clark & Drummond","lat":41.93083824,"lng":-87.64388281},{"id":"1917","name":"Clark & Diversey","lat":41.93321322,"lng":-87.64510093},{"id":"1918","name":"Clark & Surf","lat":41.93475987,"lng":-87.64630763},{"id":"1921","name":"Clark & Belmont","lat":41.93986685,"lng":-87.65049529},{"id":"1922","name":"Clark & School/Aldine","lat":41.94168908,"lng":-87.65191964},{"id":"1924","name":"Clark & Newport","lat":41.94437595,"lng":-87.65411834},{"id":"1926","name":"Clark & Addison","lat":41.94707328,"lng":-87.65630719},{"id":"1929","name":"Clark & Byron","lat":41.95256349,"lng":-87.66072189},{"id":"1931","name":"Clark & Belle Plaine","lat":41.95671999,"lng":-87.66365855},{"id":"1933","name":"Clark & Cullom","lat":41.9597359,"lng":-87.6651516},{"id":"1935","name":"Clark & Sunnyside","lat":41.96337887,"lng":-87.66626977},{"id":"1936","name":"Clark & Wilson","lat":41.96518338,"lng":-87.66663072},{"id":"1937","name":"Clark & Leland","lat":41.96699734,"lng":-87.66695668},{"id":"1939","name":"Clark & Ainslie","lat":41.97178487,"lng":-87.66776177},{"id":"1942","name":"Clark & Foster","lat":41.97610539,"lng":-87.66832546},{"id":"1943","name":"Clark & Berwyn","lat":41.97795134,"lng":-87.66814558},{"id":"1945","name":"Clark & Catalpa","lat":41.98160447,"lng":-87.66823317},{"id":"1948","name":"Clark & Hollywood","lat":41.98536509,"lng":-87.66908572},{"id":"1950","name":"Clark & Ardmore","lat":41.98812937,"lng":-87.66965553},{"id":"1951","name":"Clark & Ridge","lat":41.98941751,"lng":-87.66979979},{"id":"1955","name":"Clark & Rosemont","lat":41.99630387,"lng":-87.67015877},{"id":"1956","name":"Clark & Devon","lat":41.99792858,"lng":-87.67039663},{"id":"1957","name":"Clark & Arthur","lat":42.00070303,"lng":-87.67143102},{"id":"1958","name":"Clark & Albion","lat":42.00163356,"lng":-87.67173911},{"id":"1959","name":"Clark & North Shore","lat":42.00343162,"lng":-87.67238082},{"id":"1963","name":"Clark & Lunt","lat":42.00893291,"lng":-87.67386275},{"id":"1968","name":"Clark & Jarvis","lat":42.01595787,"lng":-87.67514378},{"id":"1970","name":"Division & Austin Terminal","lat":41.90180593,"lng":-87.77501493},{"id":"1971","name":"Division & Mayfield","lat":41.90197985,"lng":-87.7730478},{"id":"1972","name":"Division & Menard","lat":41.90201685,"lng":-87.77061979},{"id":"1973","name":"Division & Waller","lat":41.90205285,"lng":-87.76819179},{"id":"1975","name":"Division & Pine","lat":41.90210985,"lng":-87.76394079},{"id":"1976","name":"Division & Long","lat":41.90214085,"lng":-87.76104279},{"id":"1977","name":"Division & Lockwood","lat":41.90216885,"lng":-87.75835179},{"id":"1979","name":"Division & Leclaire","lat":41.90222185,"lng":-87.75342879},{"id":"1981","name":"Division & Lamon","lat":41.90229585,"lng":-87.74848979},{"id":"1983","name":"4659 W Division","lat":41.9023478,"lng":-87.74350334},{"id":"1984","name":"Division & Kolmar","lat":41.90242224,"lng":-87.7399488},{"id":"1985","name":"Division & Kilbourn","lat":41.90240185,"lng":-87.73869878},{"id":"1986","name":"Division & Kostner","lat":41.90246085,"lng":-87.73624478},{"id":"1987","name":"Division & Kildare","lat":41.90249659,"lng":-87.73380121},{"id":"1989","name":"Division & Karlov","lat":41.90257185,"lng":-87.72886778},{"id":"1990","name":"Division & Pulaski","lat":41.9025986,"lng":-87.72645425},{"id":"1991","name":"Division & Springfield","lat":41.90263285,"lng":-87.72397378},{"id":"1992","name":"Division & Hamlin","lat":41.90265785,"lng":-87.72153878},{"id":"1993","name":"Division & Grand/Monticello","lat":41.90266919,"lng":-87.71794085},{"id":"1997","name":"Division & Spaulding","lat":41.90276185,"lng":-87.70945778},{"id":"2001","name":"Division & Francisco","lat":41.90284985,"lng":-87.69946677},{"id":"2003","name":"Division & Washtenaw","lat":41.90289585,"lng":-87.69453277},{"id":"2004","name":"Division & Rockwell","lat":41.90295503,"lng":-87.69198965},{"id":"2005","name":"Division & Campbell","lat":41.90294368,"lng":-87.68964675},{"id":"2009","name":"Division & Hoyne","lat":41.90310268,"lng":-87.67985074},{"id":"2013","name":"Division & Paulina","lat":41.90322054,"lng":-87.67006099},{"id":"2014","name":"Division & Ashland (Blue Line)","lat":41.90324485,"lng":-87.66769871},{"id":"2020","name":"Division & Elston","lat":41.90340534,"lng":-87.6588718},{"id":"2022","name":"Division & Cherry","lat":41.90347969,"lng":-87.65423992},{"id":"2028","name":"Division & Larrabee","lat":41.90363372,"lng":-87.64369557},{"id":"2032","name":"311 W Division","lat":41.90376115,"lng":-87.63603612},{"id":"2033","name":"Division & Wells","lat":41.90379289,"lng":-87.63466561},{"id":"2034","name":"Division & LaSalle","lat":41.90381058,"lng":-87.63315034},{"id":"2037","name":"Dearborn & Maple","lat":41.90198386,"lng":-87.62999975},{"id":"2038","name":"Division & Clark","lat":41.90397512,"lng":-87.63171859},{"id":"2041","name":"300 W Division","lat":41.90390511,"lng":-87.63656375},{"id":"2042","name":"Division & Sedgwick","lat":41.90386086,"lng":-87.63821375},{"id":"2043","name":"Division & Clybourn","lat":41.90383886,"lng":-87.64002276},{"id":"2045","name":"Division & Larrabee","lat":41.90379155,"lng":-87.64351086},{"id":"2048","name":"Division & Halsted","lat":41.90371939,"lng":-87.6479957},{"id":"2051","name":"Division & Cherry","lat":41.90363682,"lng":-87.65405666},{"id":"2053","name":"Division & Elston","lat":41.90358332,"lng":-87.65894507},{"id":"2055","name":"Division & Noble","lat":41.9035135,"lng":-87.66248885},{"id":"2056","name":"Division & Cleaver","lat":41.90350561,"lng":-87.66373728},{"id":"2059","name":"Division & Ashland (Blue Line)","lat":41.90345663,"lng":-87.66729616},{"id":"2060","name":"Division & Paulina","lat":41.90339092,"lng":-87.6703108},{"id":"2061","name":"Division & Wood","lat":41.90332335,"lng":-87.67218554},{"id":"2063","name":"Division & Damen","lat":41.90327939,"lng":-87.6769275},{"id":"2064","name":"Division & Hoyne","lat":41.90329,"lng":-87.67949866},{"id":"2068","name":"Division & Campbell","lat":41.90300285,"lng":-87.68929577},{"id":"2069","name":"Division & Rockwell","lat":41.90300285,"lng":-87.69169477},{"id":"2070","name":"Division & Washtenaw","lat":41.90300286,"lng":-87.69419577},