{"metroId":"dublin","feedOnestopId":"f-small~operators~ie","builtAt":"2026-07-11T15:15:34.235Z","stops":[{"id":"8220000415","name":"Belgrave Square East","lat":53.322753527936,"lng":-6.25996704366023},{"id":"8220DB000312","name":"Wellington Quay","lat":53.3454764728264,"lng":-6.2662061554843},{"id":"8220DB000325","name":"Aston Quay","lat":53.3466970502533,"lng":-6.2599082595371},{"id":"8220DB000330","name":"Crampton Quay","lat":53.34613,"lng":-6.262334},{"id":"8220DB000339","name":"Burgh Quay","lat":53.3472557290559,"lng":-6.2569265033488},{"id":"8220DB000751","name":"Herbert Street","lat":53.335321,"lng":-6.246572},{"id":"8220DB002270","name":"Ferry Port Termnl 1","lat":53.345706,"lng":-6.195619},{"id":"8220DB002311","name":"Kevin Street","lat":53.338285,"lng":-6.270492},{"id":"8220DB002788","name":"Castlewood Avenue","lat":53.322839,"lng":-6.263341},{"id":"8220DB002809","name":"Pearse Stn","lat":53.34306,"lng":-6.24984},{"id":"8240DB000733","name":"Forest View","lat":53.449433,"lng":-6.240474},{"id":"8240DB005055","name":"Hazelwood","lat":53.400386,"lng":-6.259523},{"id":"8240DB007297","name":"Connolly Hospital","lat":53.3880162566005,"lng":-6.37078686684588},{"id":"8250GD10097","name":"Mt Anville School","lat":53.293208,"lng":-6.22452},{"id":"8220000419","name":"St Michaels College","lat":53.320343,"lng":-6.21784},{"id":"8220000420","name":"St Michaels College","lat":53.32028,"lng":-6.217812},{"id":"8220000441","name":"Cumberland Street N","lat":53.353699,"lng":-6.258169},{"id":"8220DB000297","name":"Eden Quay","lat":53.3481432679358,"lng":-6.25677012601713},{"id":"8220DB000301","name":"Eden Quay","lat":53.347988,"lng":-6.256626},{"id":"8220DB000340","name":"Townsend Street","lat":53.345975,"lng":-6.256017},{"id":"8220DB000748","name":"Merrion Row","lat":53.33851,"lng":-6.255031},{"id":"8220DB000760","name":"Donnybrook Dpot","lat":53.31833,"lng":-6.230562},{"id":"8220DB000771","name":"Teresian School","lat":53.31588,"lng":-6.227781},{"id":"8220DB007586","name":"National Gallery","lat":53.341971,"lng":-6.253222},{"id":"8240DB004975","name":"TU Dublin","lat":53.403501,"lng":-6.378588},{"id":"8220000003","name":"Ferry Termnl 2","lat":53.35,"lng":-6.19725},{"id":"8220000418","name":"Lithuanian Embassy","lat":53.3200143932816,"lng":-6.221725956384},{"id":"8220000421","name":"Opposite Lithuanian Embassy","lat":53.3200505474777,"lng":-6.2217394638263},{"id":"8220DB000333","name":"D'Olier Street","lat":53.346692,"lng":-6.258346},{"id":"8220DB000773","name":"Donnybrook Stdm","lat":53.319916,"lng":-6.233273},{"id":"8220DB000817","name":"Mater Hospital","lat":53.359646,"lng":-6.269612},{"id":"8220DB002088","name":"St Vincent's Hosp","lat":53.3172966893469,"lng":-6.21609017469623},{"id":"8220DB002811","name":"Merrion Street","lat":53.33936,"lng":-6.252308},{"id":"8220DB002900","name":"Ranelagh Luas","lat":53.325936,"lng":-6.255739},{"id":"8220DB007585","name":"National Gallery","lat":53.342037,"lng":-6.253475},{"id":"8220DB007588","name":"Pearse Street","lat":53.344985,"lng":-6.254075},{"id":"8220DB007611","name":"N Wall Quay","lat":53.34727,"lng":-6.23661},{"id":"8240DB005028","name":"Boroimhe Maples","lat":53.4446475315735,"lng":-6.23106682512784},{"id":"8220DB001020","name":"Rathmines","lat":53.32508,"lng":-6.26508},{"id":"8220DB001086","name":"Terenure Road West","lat":53.30967,"lng":-6.285606},{"id":"8220DB001163","name":"Terenure Lbry","lat":53.308873,"lng":-6.285863},{"id":"8220DB001696","name":"Ashtown Roundabout","lat":53.371541,"lng":-6.329831},{"id":"8220DB007398","name":"Convention Centre","lat":53.347499,"lng":-6.239853},{"id":"8220DB007453","name":"Arran Quay","lat":53.3463358924171,"lng":-6.27838250402176},{"id":"8230DB001140","name":"Woodbrook Pk","lat":53.293285,"lng":-6.309559},{"id":"8230PB14556","name":"DSP Building","lat":53.28688,"lng":-6.36855},{"id":"8240000549","name":"Airport Zone 16","lat":53.42899,"lng":-6.24108},{"id":"8240B111911","name":"Terminal 2 Zone 19","lat":53.42611,"lng":-6.2384},{"id":"8240DB001873","name":"Sacred Heart Church","lat":53.4017062047205,"lng":-6.41022298930775},{"id":"8240DB001877","name":"St Ciaran's Church","lat":53.393422,"lng":-6.418531},{"id":"8250DB000768","name":"UCD Stillorgan Rd","lat":53.309418,"lng":-6.218775},{"id":"8250DB001311","name":"Whitebarn Road","lat":53.292189,"lng":-6.26457},{"id":"8250DB002017","name":"Foxrock Church","lat":53.274197,"lng":-6.175015},{"id":"8250DB003139","name":"Stonebridge Close","lat":53.230064,"lng":-6.124091},{"id":"8250DB003140","name":"Stonebridge Close","lat":53.2297600975643,"lng":-6.12420860762254},{"id":"8220CO10996","name":"Parkgate St","lat":53.347888,"lng":-6.290712},{"id":"8220DB000021","name":"Drumcondra Village","lat":53.370101,"lng":-6.254311},{"id":"8220DB000407","name":"Custom House","lat":53.348335,"lng":-6.253893},{"id":"8220DB000483","name":"British Embassy","lat":53.325944,"lng":-6.223972},{"id":"8220DB000834","name":"St Patrick's Road","lat":53.361975,"lng":-6.260428},{"id":"8220DB000903","name":"Chelmsford Road","lat":53.325583,"lng":-6.252496},{"id":"8220DB000904","name":"Appian Way","lat":53.327417,"lng":-6.248848},{"id":"8220DB001444","name":"Merchant's Quay","lat":53.34504,"lng":-6.27417},{"id":"8220DB002501","name":"N Wall Quay","lat":53.347376,"lng":-6.236359},{"id":"8220DB010997","name":"Usher's Quay","lat":53.34568,"lng":-6.27828},{"id":"8250DB002068","name":"Greenfield Road","lat":53.29805,"lng":-6.20467},{"id":"8220DB000047","name":"Archbishop's House","lat":53.363916,"lng":-6.257298},{"id":"8220DB000080","name":"Phibsborough Church","lat":53.360863,"lng":-6.276054},{"id":"8220DB000086","name":"Home Farm FC","lat":53.3760502204589,"lng":-6.25116639066169},{"id":"8220DB000119","name":"Whitehall Village","lat":53.375191,"lng":-6.250766},{"id":"8220DB001026","name":"Dartry Road","lat":53.309106,"lng":-6.260327},{"id":"8220DB001064","name":"Dartry Road","lat":53.309429,"lng":-6.260929},{"id":"8220DB007216","name":"North Wall Quay","lat":53.347804396268,"lng":-6.24285992766227},{"id":"8220DB007397","name":"Samuel Beckett Br","lat":53.347694,"lng":-6.2433},{"id":"8230DB006013","name":"Nangor Road Rnbt","lat":53.324062,"lng":-6.40568},{"id":"8240000551","name":"Terminal 1 Zone 1","lat":53.42797,"lng":-6.24417},{"id":"8240B112001","name":"Airport Zone 12","lat":53.42829,"lng":-6.24256},{"id":"8240DB001864","name":"Sacred Heart Church","lat":53.401816,"lng":-6.410369},{"id":"8240DB003087","name":"Ridgewood","lat":53.446198,"lng":-6.240472},{"id":"8220DB000190","name":"Broadstone","lat":53.3551257304144,"lng":-6.27337107400574},{"id":"8220DB000205","name":"Iveragh Road","lat":53.381375,"lng":-6.245326},{"id":"8220DB000260","name":"Parnell Square East","lat":53.3542939896038,"lng":-6.26312912620226},{"id":"8220DB002385","name":"Patrick Street","lat":53.3423151191354,"lng":-6.27195136781826},{"id":"8220DB006253","name":"Balbutcher Drive","lat":53.403951,"lng":-6.281668},{"id":"8230DB002520","name":"Ballycullen Road","lat":53.286078,"lng":-6.332657},{"id":"8230DB002540","name":"Old Bawn SC","lat":53.275532,"lng":-6.353775},{"id":"8240DB003665","name":"Terminal 1 Zone 2","lat":53.42813,"lng":-6.24411},{"id":"8240DB006009","name":"Hazelwood","lat":53.40011,"lng":-6.257218},{"id":"8220000150","name":"Abbey St","lat":53.348562,"lng":-6.258961},{"id":"8220000416","name":"St Conleths College","lat":53.328345,"lng":-6.240447},{"id":"8220000417","name":"St Conleths College","lat":53.32831,"lng":-6.240478},{"id":"8220DB000303","name":"Eden Quay","lat":53.34806,"lng":-6.255992},{"id":"8220DB000762","name":"RTÉ Studios","lat":53.314517,"lng":-6.224371},{"id":"8220DB000786","name":"Leeson Street Lwr","lat":53.33513,"lng":-6.25612},{"id":"8220DB000790","name":"Stephen's Green Nth","lat":53.339316,"lng":-6.258367},{"id":"8220DB002794","name":"Castlewood Avenue","lat":53.322611,"lng":-6.264341},{"id":"8220DB002814","name":"Ranelagh Luas","lat":53.326034,"lng":-6.25563},{"id":"8220DB007623","name":"The Point","lat":53.346861,"lng":-6.228878},{"id":"8240DB005029","name":"Boroimhe Laurels","lat":53.445076,"lng":-6.234542},{"id":"8240DB006005","name":"Plaza Apartments","lat":53.419943,"lng":-6.383454},{"id":"8240DB007350","name":"Lanesborough Pk","lat":53.403925,"lng":-6.301792},{"id":"8220DB000045","name":"Drumcondra Village","lat":53.369936,"lng":-6.254107},{"id":"8220DB000051","name":"Eccles Place","lat":53.35781,"lng":-6.263272},{"id":"8220DB001014","name":"Earlsfort Terrace","lat":53.33574,"lng":-6.257441},{"id":"8220DB001082","name":"Rathgar West","lat":53.311676,"lng":-6.275771},{"id":"8220DB001165","name":"Rathgar West","lat":53.311712,"lng":-6.276429},{"id":"8220PB11631","name":"Winetavern Street","lat":53.343467,"lng":-6.27201},{"id":"823000002","name":"Brideswell Commons","lat":53.314425,"lng":-6.393477},{"id":"8230DB001127","name":"Templeogue Village","lat":53.298456,"lng":-6.302844},{"id":"8240000026","name":"FoodCentral","lat":53.442141,"lng":-6.282795},{"id":"8240B1045601","name":"Blanchardstown N3","lat":53.39732,"lng":-6.38979},{"id":"8250DB001317","name":"Loreto Park","lat":53.291935,"lng":-6.269965},{"id":"8250DB002010","name":"Booterstown Avenue","lat":53.2988972413331,"lng":-6.20467441021003},{"id":"8250DB003135","name":"Hospital","lat":53.2429290400298,"lng":-6.13055525740997},{"id":"8250DB003143","name":"Hospital","lat":53.242691,"lng":-6.13082},{"id":"8250DB007362","name":"Clonkeen Road","lat":53.2659394317396,"lng":-6.15769154664824},{"id":"8220B106421","name":"3Arena","lat":53.346899,"lng":-6.229431},{"id":"8220DB000017","name":"Drumcondra Stn","lat":53.363078,"lng":-6.258399},{"id":"8220DB000404","name":"Nassau Street","lat":53.342663,"lng":-6.256348},{"id":"8220DB000405","name":"Nassau Street","lat":53.3424816891816,"lng":-6.2556043726643},{"id":"8220DB000416","name":"RDS Ballsbridge","lat":53.3286399201175,"lng":-6.22936956914703},{"id":"8220DB000418","name":"British Embassy","lat":53.32572,"lng":-6.223395},{"id":"8220DB000851","name":"Ranelagh","lat":53.3251,"lng":-6.253221},{"id":"8220DB001804","name":"Rosecourt","lat":53.36163,"lng":-6.29735},{"id":"8220DB004425","name":"Heuston Station","lat":53.346397,"lng":-6.291988},{"id":"8220DB004495","name":"Hawkins Street","lat":53.346493,"lng":-6.257033},{"id":"8220B1021101","name":"Bachelors Walk","lat":53.346833,"lng":-6.262471},{"id":"8220B1351101","name":"George's Quay","lat":53.347392,"lng":-6.252129},{"id":"8220B1351401","name":"George's Quay","lat":53.34737,"lng":-6.25346},{"id":"8220B1352701","name":"Custom Hse Quay","lat":53.348359,"lng":-6.253712},{"id":"8220B1353501","name":"Eden Quay","lat":53.3478,"lng":-6.258496},{"id":"8220DB000406","name":"Nassau Street","lat":53.342606,"lng":-6.256125},{"id":"8220DB000419","name":"Shrewsbury Park","lat":53.323995,"lng":-6.22045},{"id":"8220DB000485","name":"RDS Ballsbridge","lat":53.328252,"lng":-6.228635},{"id":"8220DB000849","name":"Appian Way","lat":53.327898,"lng":-6.247927},{"id":"8220DB000852","name":"Ranelagh","lat":53.324429,"lng":-6.252858},{"id":"8220DB000894","name":"Cowper Road West","lat":53.315193,"lng":-6.264192},{"id":"8220DB000908","name":"Grand Parade","lat":53.3311542855348,"lng":-6.25237303421842},{"id":"8220DB002500","name":"Samuel Beckett Br","lat":53.347788,"lng":-6.24238},{"id":"8220DB004543","name":"Finglas Place","lat":53.386249,"lng":-6.296993},{"id":"8220DB004726","name":"Parnell Square Nth","lat":53.354263,"lng":-6.264077},{"id":"8230DB005011","name":"Belgard Road","lat":53.302471,"lng":-6.376881},{"id":"8240DB001680","name":"Bramley Walk","lat":53.375537,"lng":-6.388999},{"id":"8250DB003129","name":"Johnstown Road","lat":53.262455268067,"lng":-6.15036092469475},{"id":"8250DB004571","name":"Stillorgan Park","lat":53.288979,"lng":-6.194875},{"id":"8220DB001642","name":"Whitehall Church","lat":53.38401,"lng":-6.24339},{"id":"8230DB002538","name":"Old Bawn Rd","lat":53.281535,"lng":-6.358914},{"id":"8230DB002545","name":"Monalea Wood","lat":53.286257,"lng":-6.332635},{"id":"8230DB002548","name":"Green Acre Ct","lat":53.289503,"lng":-6.317974},{"id":"8230DB002619","name":"Belgard Road","lat":53.302675,"lng":-6.376694},{"id":"8230DB002620","name":"Belgard","lat":53.298721,"lng":-6.370842},{"id":"8240DB003674","name":"Equestrian Centre","lat":53.4410501588912,"lng":-6.22788947665305},{"id":"8240DB003696","name":"N1 Business Park","lat":53.443182,"lng":-6.227996},{"id":"8240DB006015","name":"Cherry Park","lat":53.448336,"lng":-6.238577},{"id":"8250DB002867","name":"Notre Dame School","lat":53.293998,"lng":-6.249945},{"id":"8250DB005128","name":"Clonkeen Road","lat":53.2655267044598,"lng":-6.157739275846},{"id":"8220B100111","name":"Westland Row","lat":53.343163,"lng":-6.249959},{"id":"8220B1011301","name":"North Road","lat":53.40014650036,"lng":-6.30786746825518},{"id":"8220B1351201","name":"Connolly Station","lat":53.350218,"lng":-6.250527},{"id":"8220DB000420","name":"Merlyn Road","lat":53.321911,"lng":-6.217504},{"id":"8220DB000845","name":"Leeson Street Lwr","lat":53.335453,"lng":-6.256252},{"id":"8220DB000847","name":"Leeson Street Upr","lat":53.3316014451627,"lng":-6.25221961965177},{"id":"8220DB001479","name":"Ormond Quay Upr","lat":53.34599,"lng":-6.26906},{"id":"8220DB002499","name":"S O'Casey Br","lat":53.348128,"lng":-6.247128},{"id":"8220DB002507","name":"The Point","lat":53.348022,"lng":-6.227169},{"id":"8220DB004542","name":"Finglas Place","lat":53.386664,"lng":-6.297097},{"id":"8230DB001331","name":"Rathfarnham Cstl","lat":53.298519,"lng":-6.284628},{"id":"8230DB005132","name":"Owendore Avenue","lat":53.297946220461,"lng":-6.28666082155279},{"id":"8250DB002060","name":"Foxrock Church","lat":53.273955,"lng":-6.175086},{"id":"8220DB001074","name":"Harcourt Street","lat":53.334001,"lng":-6.261742},{"id":"8220DB001174","name":"Mountjoy Sq West","lat":53.356187,"lng":-6.258545},{"id":"8220DB007399","name":"The Point","lat":53.348493,"lng":-6.226864},{"id":"823000001","name":"DSP Building","lat":53.286799825717,"lng":-6.36861107998203},{"id":"8230DB000946","name":"Woodbrook Pk","lat":53.293247,"lng":-6.310041},{"id":"8230DB001130","name":"Templeogue Br","lat":53.296342,"lng":-6.308373},{"id":"8230DB003425","name":"Newlands X","lat":53.313902,"lng":-6.391996},{"id":"8240000023","name":"Premier Inn Swords","lat":53.445161,"lng":-6.226273},{"id":"8240000550","name":"Terminal 2 Zone 21","lat":53.42697,"lng":-6.24002},{"id":"8240DB004747","name":"Blanchardstown SC","lat":53.3943327828823,"lng":-6.39185248232824},{"id":"8250DB001313","name":"Camberly Oaks","lat":53.294199,"lng":-6.258803},{"id":"8250DB002007","name":"Woodbine Road","lat":53.3088750410388,"lng":-6.21611120483354},{"id":"8220DB000265","name":"Parnell Square East","lat":53.353122,"lng":-6.261658},{"id":"8220DB000272","name":"O'Connell St Upper","lat":53.3514644798917,"lng":-6.26078060573293},{"id":"8220DB001506","name":"Hart's Corner","lat":53.366778,"lng":-6.272374},{"id":"8220DB001536","name":"Glasnevin Cemetery","lat":53.3695033971686,"lng":-6.27687723281359},{"id":"8220DB004967","name":"Stephen's Green Nth","lat":53.339218,"lng":-6.257975},{"id":"8230DB002532","name":"Old Bawn SC","lat":53.275604,"lng":-6.354432},{"id":"8230DB002542","name":"Firhouse Coll","lat":53.276793,"lng":-6.350098},{"id":"8230DB004667","name":"St John's Park East","lat":53.317479,"lng":-6.401348},{"id":"8240DB001860","name":"St Ciaran's Church","lat":53.393299,"lng":-6.418761},{"id":"8240DB003697","name":"Equestrian Centre","lat":53.440686,"lng":-6.227558},{"id":"8250DB005127","name":"Cabinteely Bypass","lat":53.2620155969668,"lng":-6.15040988277704},{"id":"8220DB000187","name":"Munster Street","lat":53.362734,"lng":-6.272447},{"id":"8220DB000196","name":"Phibsborough Road","lat":53.356884,"lng":-6.273751},{"id":"8220DB000200","name":"Prospect Way","lat":53.367423,"lng":-6.271596},{"id":"8220DB001620","name":"Whitehall Church","lat":53.383263,"lng":-6.244106},{"id":"8220DB002386","name":"New Street South","lat":53.337907,"lng":-6.272325},{"id":"8230DB002523","name":"Firhouse Coll","lat":53.277107,"lng":-6.348751},{"id":"8230DB002534","name":"Old Bawn Trce","lat":53.278929,"lng":-6.358309},{"id":"8230DB002618","name":"Belgard","lat":53.2987546058886,"lng":-6.37129107581067},{"id":"8230DB004671","name":"Cherrywood Ave","lat":53.320155,"lng":-6.405841},{"id":"8230DB004672","name":"St John's Park East","lat":53.317548,"lng":-6.40112},{"id":"8240DB003675","name":"N1 Business Park","lat":53.44334,"lng":-6.228336},{"id":"8240DB006348","name":"Lanesborough Pk","lat":53.403502,"lng":-6.30241},{"id":"8240DB007025","name":"Blanchardstown SC","lat":53.394169,"lng":-6.391609},{"id":"8250B1350601","name":"UCD Belfield Campus","lat":53.305315,"lng":-6.216635},{"id":"8250DB004727","name":"Laurence Park","lat":53.2908117067824,"lng":-6.19778320998189}],"routes":[{"id":"026 783 a","shortName":"783","longName":"Dublin Airport - Terenure","mode":"bus"},{"id":"060 179 a","shortName":"179","longName":"Coothill - Dublin City","mode":"bus"},{"id":"1049 193","shortName":"193","longName":"Ashbourne - Dublin","mode":"bus"},{"id":"1049 194","shortName":"194","longName":"Ratoath - Dublin","mode":"bus"},{"id":"1049 741 a","shortName":"741","longName":"Dublin Airport - Swords","mode":"bus"},{"id":"1131 722","shortName":"722","longName":"Killarney - Dublin Airport","mode":"bus"},{"id":"1131 723","shortName":"723","longName":"Ennis - Dublin Airport","mode":"bus"},{"id":"1135 511 a","shortName":"511","longName":"Rathfarnham - Mount Anville","mode":"bus"},{"id":"1178 782","shortName":"782","longName":"Dublin Airport - Heuston Station","mode":"bus"},{"id":"1178 784","shortName":"784","longName":"Dublin Airport - City Centre","mode":"bus"},{"id":"1178 785 a","shortName":"785","longName":"Belfast - Dublin","mode":"bus"},{"id":"1179 853 c","shortName":"853","longName":"Dublin Port - Heuston Station","mode":"bus"},{"id":"1179 KL01","shortName":"KL01","longName":"Phibsborough - FoodCentral","mode":"bus"},{"id":"1179 KL03","shortName":"KL03","longName":"Santry - FoodCentral","mode":"bus"},{"id":"1179 KL04 a","shortName":"KL04","longName":"Tyrrelstown - FoodCentral","mode":"bus"},{"id":"1181 BI01 a","shortName":"BI01","longName":"TU Blanchardstown Shuttle Bus","mode":"bus"},{"id":"290 181 d","shortName":"181","longName":"Glendalough - Dublin","mode":"bus"},{"id":"429 UM08 a","shortName":"UM08","longName":"Dundrum - Maynooth","mode":"bus"},{"id":"609 932","shortName":"932","longName":"Anagaire - Letterkenny - Dublin","mode":"bus"},{"id":"609 932A c","shortName":"932A","longName":"Anagaire - Letterkenny - Dublin","mode":"bus"},{"id":"609 933","shortName":"933","longName":"Moville - Derry - Dublin","mode":"bus"},{"id":"609 933A","shortName":"933A","longName":"Moville - Derry - Dublin","mode":"bus"},{"id":"690 180 b","shortName":"180","longName":"Clones - Monaghan - Dublin","mode":"bus"},{"id":"690 GD01","shortName":"GD01","longName":"UCD - Monaghan","mode":"bus"},{"id":"866 980 b","shortName":"980","longName":"Carrickmacross - Dublin","mode":"bus"},{"id":"866 980A d","shortName":"980A","longName":"Carrickmacross - Dublin","mode":"bus"},{"id":"866 980B d","shortName":"980B","longName":"Carrickmacross - Dublin","mode":"bus"},{"id":"Carolan 191 b","shortName":"191","longName":"Stamullen - Dublin","mode":"bus"}],"stopRouteIds":{"823000001":["429 UM08 a"],"823000002":["429 UM08 a"],"8220DB007399":["Carolan 191 b","866 980A d","1049 193","1049 194","026 783 a","1178 784"],"8220DB007398":["Carolan 191 b","1049 193","1049 194"],"8220DB000301":["Carolan 191 b"],"8220B1353501":["Carolan 191 b"],"8220DB000407":["Carolan 191 b","060 179 a"],"8220DB002499":["Carolan 191 b","866 980A d","1049 194","1049 193"],"8220DB002501":["Carolan 191 b","1049 194","1049 193"],"8220DB002507":["Carolan 191 b"],"8220000150":["866 980 b","866 980A d","866 980B d"],"8220DB001174":["866 980 b","866 980B d"],"8220DB000834":["866 980 b"],"8220DB001506":["866 980 b"],"8220DB004543":["866 980 b"],"8220B1011301":["866 980 b"],"8220DB004542":["866 980 b"],"8220DB001536":["866 980 b"],"8220DB000200":["866 980 b"],"8220DB000187":["866 980 b"],"8220DB000817":["866 980 b","060 179 a"],"8220DB000260":["866 980 b"],"8220DB000405":["866 980 b"],"8220DB007611":["866 980A d"],"8220DB006253":["866 980A d"],"8220B1351401":["866 980A d","1178 782"],"8220DB000333":["866 980A d"],"8220DB000406":["866 980A d","866 980B d"],"8220DB001642":["866 980B d","609 932","690 180 b"],"8220DB000045":["866 980B d","609 932","690 180 b"],"8220DB000047":["866 980B d","609 932"],"8220DB000051":["866 980B d","690 180 b"],"8220DB000017":["866 980B d","609 932"],"8220DB000021":["866 980B d","609 932","690 180 b","690 GD01"],"8220DB001620":["866 980B d","690 180 b"],"8240000549":["609 932","609 932A c","609 933","609 933A","1049 741 a"],"8220DB000119":["609 932"],"8220DB000265":["609 932","609 932A c","609 933","609 933A","060 179 a"],"8220DB004726":["609 932","609 932A c","609 933","609 933A","690 180 b","690 GD01"],"8220DB000086":["609 932"],"8220DB000205":["609 932"],"8220DB000272":["690 180 b"],"8220DB000404":["690 180 b","690 GD01"],"8220DB001014":["690 180 b"],"8220DB000416":["690 180 b","1135 511 a"],"8220DB002088":["690 180 b"],"8250B1350601":["690 180 b"],"8220DB001020":["690 180 b"],"8220DB000852":["690 180 b"],"8220DB000760":["690 180 b","290 181 d","1135 511 a"],"8250DB000768":["690 180 b","690 GD01","290 181 d","060 179 a"],"8220000003":["1179 853 c"],"8220B1351201":["1179 853 c"],"8220B1351101":["1179 853 c"],"8220DB000330":["1179 853 c"],"8220CO10996":["1179 853 c"],"8220B1021101":["1179 853 c"],"8220B1352701":["1179 853 c","1049 194","1049 193","026 783 a","1178 782","1178 784","1178 785 a"],"8220DB002270":["1179 853 c"],"8250DB003140":["290 181 d"],"8250DB003143":["290 181 d"],"8250DB005127":["290 181 d"],"8250DB005128":["290 181 d"],"8250DB002060":["290 181 d"],"8250DB004727":["290 181 d"],"8250DB002068":["290 181 d"],"8220DB000773":["290 181 d"],"8220DB000786":["290 181 d"],"8220DB000908":["290 181 d"],"8220DB004967":["290 181 d"],"8220DB000847":["290 181 d"],"8220DB000845":["290 181 d"],"8250DB002007":["290 181 d"],"8250DB002010":["290 181 d"],"8250DB004571":["290 181 d"],"8250DB002017":["290 181 d"],"8250DB007362":["290 181 d"],"8250DB003129":["290 181 d"],"8250DB003135":["290 181 d"],"8250DB003139":["290 181 d"],"8240DB004975":["1181 BI01 a"],"8240DB007025":["1181 BI01 a"],"8240DB001873":["1181 BI01 a"],"8240DB001877":["1181 BI01 a"],"8240DB001680":["1181 BI01 a"],"8240DB004747":["1181 BI01 a","1179 KL04 a"],"8240DB001860":["1181 BI01 a"],"8240DB001864":["1181 BI01 a"],"8250DB002867":["429 UM08 a"],"8250DB001317":["429 UM08 a"],"8230DB001331":["429 UM08 a"],"8230DB001127":["429 UM08 a"],"8230DB001130":["429 UM08 a"],"8230DB001140":["429 UM08 a"],"8230DB002520":["429 UM08 a"],"8230DB002523":["429 UM08 a"],"8230DB002532":["429 UM08 a"],"8230DB002534":["429 UM08 a"],"8230PB14556":["429 UM08 a"],"8230DB002618":["429 UM08 a"],"8230DB005011":["429 UM08 a"],"8230DB004667":["429 UM08 a"],"8230DB006013":["429 UM08 a"],"8230DB004671":["429 UM08 a"],"8230DB004672":["429 UM08 a"],"8230DB003425":["429 UM08 a"],"8230DB002619":["429 UM08 a"],"8230DB002620":["429 UM08 a"],"8230DB002538":["429 UM08 a"],"8230DB002540":["429 UM08 a"],"8230DB002542":["429 UM08 a"],"8230DB002545":["429 UM08 a"],"8230DB002548":["429 UM08 a"],"8230DB000946":["429 UM08 a"],"8230DB005132":["429 UM08 a"],"8250DB001311":["429 UM08 a"],"8250DB001313":["429 UM08 a"],"8220DB000196":["1179 KL01"],"8240DB006009":["1179 KL03"],"8240DB006005":["1179 KL04 a"],"8240DB006348":["1179 KL04 a"],"8240000026":["1179 KL04 a"],"8240DB007350":["1179 KL04 a"],"8220DB000190":["1179 KL01"],"8240DB005055":["1179 KL03"],"8220DB001064":["1135 511 a"],"8220DB000894":["1135 511 a"],"8220000415":["1135 511 a"],"8220DB000903":["1135 511 a"],"8220DB000904":["1135 511 a"],"8220000416":["1135 511 a"],"8220DB000418":["1135 511 a"],"8220DB000419":["1135 511 a"],"8220DB000420":["1135 511 a"],"8220000420":["1135 511 a"],"8220000418":["1135 511 a"],"8220DB000762":["1135 511 a"],"8250GD10097":["1135 511 a"],"8220DB000771":["1135 511 a"],"8220000421":["1135 511 a"],"8220000419":["1135 511 a"],"8220DB000483":["1135 511 a"],"8220DB000485":["1135 511 a"],"8220000417":["1135 511 a"],"8220DB000849":["1135 511 a"],"8220DB000851":["1135 511 a"],"8220DB001026":["1135 511 a"],"8220DB007397":["1049 193","1049 194","026 783 a","1178 784"],"8220DB000303":["1049 193","1049 194","1178 784"],"8220DB000340":["1049 193","1049 194"],"8220DB002809":["1049 193","1049 194"],"8220DB002811":["1049 193","1049 194"],"8220DB000790":["1049 193","1049 194"],"8220DB007586":["1049 194","1049 193"],"8220B100111":["1049 194","1049 193","1178 785 a"],"8220DB007216":["1049 194","1049 193"],"8220B106421":["1049 194","1049 193"],"8240000023":["1049 741 a"],"8240DB003696":["1049 741 a"],"8240DB003697":["1049 741 a"],"8240DB003087":["1049 741 a"],"8240DB000733":["1049 741 a"],"8240DB006015":["1049 741 a"],"8240DB005029":["1049 741 a"],"8240DB005028":["1049 741 a"],"8240DB003674":["1049 741 a"],"8240DB003675":["1049 741 a"],"8240DB003665":["026 783 a"],"8240000550":["026 783 a","1178 785 a","1131 722","1131 723"],"8220DB000325":["026 783 a","1178 782"],"8220DB002385":["026 783 a"],"8220DB002386":["026 783 a"],"8220DB001074":["026 783 a"],"8220DB002814":["026 783 a"],"8220DB002794":["026 783 a"],"8220DB001082":["026 783 a"],"8220DB001086":["026 783 a"],"8220DB001163":["026 783 a"],"8220DB001165":["026 783 a"],"8220DB002788":["026 783 a"],"8220DB002900":["026 783 a"],"8220DB002311":["026 783 a"],"8220PB11631":["026 783 a"],"8220DB001479":["026 783 a","1178 782"],"8220DB002500":["026 783 a","1178 784"],"8220DB007623":["026 783 a","1178 784"],"8240000551":["1178 782","1178 784","1178 785 a"],"8240B111911":["1178 782","1178 784"],"8220DB000312":["1178 782"],"8220DB001444":["1178 782"],"8220DB010997":["1178 782"],"8220DB004425":["1178 782"],"8220DB007453":["1178 782"],"8220DB000297":["1178 782"],"8220DB004495":["1178 784"],"8220DB007588":["1178 784"],"8220DB000339":["1178 785 a"],"8240B112001":["1131 722","1131 723"],"8240B1045601":["060 179 a"],"8240DB007297":["060 179 a"],"8220DB001696":["060 179 a"],"8220DB001804":["060 179 a"],"8220DB000080":["060 179 a"],"8220DB007585":["060 179 a"],"8220DB000748":["060 179 a"],"8220000441":["060 179 a"],"8220DB000751":["060 179 a"]}}
