{"category":"rail_station","source":"wikidata","bbox":{"south":40.49,"west":-74.26,"north":40.92,"east":-73.7},"places":[{"id":"Q5061747","name":"Central Railroad of New Jersey Terminal","lat":40.7083,"lng":-74.0442},{"id":"Q11290","name":"Grand Central Terminal","lat":40.752778,"lng":-73.977222},{"id":"Q8033321","name":"Woodside","lat":40.746072,"lng":-73.903201},{"id":"Q5460475","name":"Floral Park","lat":40.724622,"lng":-73.706398},{"id":"Q1295999","name":"Secaucus Junction","lat":40.7616,"lng":-74.075},{"id":"Q2611963","name":"61st Street – Woodside","lat":40.745608333,"lng":-73.902966666},{"id":"Q7702618","name":"Terminal 1","lat":40.6434,"lng":-73.7892},{"id":"Q7702622","name":"Terminal 4","lat":40.644,"lng":-73.7823},{"id":"Q7702624","name":"Terminal 5","lat":40.6468,"lng":-73.7798},{"id":"Q7702628","name":"Terminal 7","lat":40.6482,"lng":-73.7831},{"id":"Q7702629","name":"Terminal 8","lat":40.6468,"lng":-73.7888},{"id":"Q7702780","name":"Terminals 2/3","lat":40.642,"lng":-73.7871},{"id":"Q16643515","name":"Jamaica","lat":40.698767,"lng":-73.808878},{"id":"Q16713677","name":"Howard Beach","lat":40.660833333,"lng":-73.83},{"id":"Q5419583","name":"Exchange Place","lat":40.7165,"lng":-74.0324},{"id":"Q5927015","name":"Saint George Terminal","lat":40.6433,"lng":-74.0742},{"id":"Q534671","name":"Manhattan Transfer","lat":40.742,"lng":-74.144},{"id":"Q7979385","name":"Weehawken Terminal","lat":40.7716,"lng":-74.0127},{"id":"Q6128305","name":"Hoboken Terminal","lat":40.735,"lng":-74.0275},{"id":"Q7156043","name":"Pavonia Terminal","lat":40.7267,"lng":-74.0348},{"id":"Q4038675","name":"Federal Circle","lat":40.6597,"lng":-73.8035},{"id":"Q4042697","name":"Lefferts Boulevard","lat":40.6618,"lng":-73.8245},{"id":"Q65081891","name":"Grand Central Madison station","lat":40.754166666,"lng":-73.976944444},{"id":"Q2177925","name":"Queensboro Plaza","lat":40.750652777,"lng":-73.940344444},{"id":"Q2585850","name":"Lexington Avenue – 63rd Street","lat":40.7646,"lng":-73.9664},{"id":"Q6294677","name":"Journal Square Transportation Center","lat":40.7321,"lng":-74.0631},{"id":"Q16846470","name":"Bridge–Jay Streets","lat":40.693774,"lng":-73.985191},{"id":"Q16985676","name":"Tompkins Avenue","lat":40.688354,"lng":-73.944932},{"id":"Q20657594","name":"Port Ivory","lat":40.636666666,"lng":-74.181388888},{"id":"Q22026342","name":"Woods of Arden","lat":40.541929,"lng":-74.170918},{"id":"Q321764","name":"Riverdale","lat":40.90444,"lng":-73.9139},{"id":"Q1745642","name":"Newark Penn Station","lat":40.734722,"lng":-74.164167},{"id":"Q7885733","name":"Union Hall Street","lat":40.702778,"lng":-73.796944},{"id":"Q4644817","name":"84th Street","lat":40.7775,"lng":-73.9549},{"id":"Q7142500","name":"Passaic","lat":40.8627,"lng":-74.1277},{"id":"Q5133163","name":"Clifton","lat":40.8901,"lng":-74.1493},{"id":"Q2355557","name":"South Ferry loops","lat":40.701111,"lng":-74.013889},{"id":"Q2918029","name":"Hudson Terminal","lat":40.71124,"lng":-74.01155},{"id":"Q2611918","name":"Court Square–23rd Street","lat":40.7476,"lng":-73.9451},{"id":"Q11680083","name":"Metropolitan Avenue","lat":40.712752,"lng":-73.951464},{"id":"Q58814785","name":"72nd Street station","lat":40.771125,"lng":-73.963825},{"id":"Q58814788","name":"86th Street station","lat":40.779573,"lng":-73.957688},{"id":"Q16965650","name":"Ridgewood station","lat":40.7037,"lng":-73.9198},{"id":"Q39073416","name":"183rd Street station","lat":40.8551,"lng":-73.8951},{"id":"Q85789487","name":"North Bergen station","lat":40.779422,"lng":-74.039879},{"id":"Q54451","name":"Pennsylvania Station","lat":40.750638,"lng":-73.993899},{"id":"Q25217456","name":"Ridgefield Park","lat":40.85666667,"lng":-74.02777778},{"id":"Q526848","name":"Parkchester","lat":40.8329,"lng":-73.8628},{"id":"Q596784","name":"Prospect Avenue station (IRT White Plains Road Line)","lat":40.819722222,"lng":-73.901666666},{"id":"Q941333","name":"Allerton Avenue","lat":40.865278,"lng":-73.867222},{"id":"Q950943","name":"20th Avenue","lat":40.6047,"lng":-73.9985},{"id":"Q969114","name":"Marcy Avenue","lat":40.7084,"lng":-73.9579},{"id":"Q971807","name":"Bronx Park East station","lat":40.848889,"lng":-73.868333},{"id":"Q973529","name":"215th Street","lat":40.869444,"lng":-73.915},{"id":"Q1883056","name":"174th Street","lat":40.837222,"lng":-73.8875},{"id":"Q1921033","name":"30th Avenue Station","lat":40.7669,"lng":-73.9214},{"id":"Q1940025","name":"Gun Hill Road","lat":40.877222,"lng":-73.866389},{"id":"Q1857260","name":"231st Street","lat":40.878611,"lng":-73.904722},{"id":"Q5349091","name":"Eighth Avenue","lat":40.7641,"lng":-73.9847},{"id":"Q1993140","name":"New Lots Avenue","lat":40.6664,"lng":-73.8826},{"id":"Q1949503","name":"Far Rockaway – Mott Avenue","lat":40.604,"lng":-73.7554},{"id":"Q2189418","name":"167th Street","lat":40.8357,"lng":-73.9213},{"id":"Q2190097","name":"25th Avenue","lat":40.5977,"lng":-73.98679},{"id":"Q2202487","name":"Astoria – Ditmars Boulevard","lat":40.7761,"lng":-73.9107},{"id":"Q2115775","name":"170th Street station (IRT Jerome Avenue Line)","lat":40.8402,"lng":-73.9177},{"id":"Q2130857","name":"176th Street","lat":40.8486,"lng":-73.9118},{"id":"Q2134240","name":"18th Avenue","lat":40.6087,"lng":-74.0021},{"id":"Q2135426","name":"Fourth Avenue / Ninth Street","lat":40.670277777,"lng":-73.989722222},{"id":"Q2147093","name":"207th Street","lat":40.8644,"lng":-73.9189},{"id":"Q7600482","name":"Stapleton","lat":40.6279,"lng":-74.0751},{"id":"Q2330191","name":"Pelham Parkway station (IRT White Plains Road Line)","lat":40.856944,"lng":-73.8675},{"id":"Q2339636","name":"Astoria Boulevard","lat":40.77,"lng":-73.9182},{"id":"Q2339849","name":"Nereid Avenue","lat":40.898333,"lng":-73.854167},{"id":"Q2099720","name":"104th Street","lat":40.6952,"lng":-73.8432},{"id":"Q9299005","name":"Court Square","lat":40.747,"lng":-73.9453},{"id":"Q2225717","name":"Pelham Bay Park","lat":40.8529,"lng":-73.8271},{"id":"Q4553927","name":"180th Street – Bronx Park","lat":40.8426,"lng":-73.8781},{"id":"Q8255401","name":"62nd Street","lat":40.62648,"lng":-73.99689},{"id":"Q4709279","name":"Albany-Sumner Avenue","lat":40.679754,"lng":-73.937844},{"id":"Q1845990","name":"Whitlock Avenue station","lat":40.8275,"lng":-73.8861},{"id":"Q4748122","name":"Ampere","lat":40.7653,"lng":-74.1944},{"id":"Q4754192","name":"Anderson Street","lat":40.8944,"lng":-74.0447},{"id":"Q4816574","name":"Atlantic Terminal","lat":40.684226,"lng":-73.977234},{"id":"Q4819347","name":"Auburndale","lat":40.76139,"lng":-73.7905},{"id":"Q20857783","name":"221st Street","lat":40.872921,"lng":-73.912015},{"id":"Q2490779","name":"219th Street Station","lat":40.883333,"lng":-73.862778},{"id":"Q2612713","name":"Burke Avenue","lat":40.871111,"lng":-73.866944},{"id":"Q2612718","name":"Simpson Street","lat":40.823889,"lng":-73.893056},{"id":"Q2612913","name":"Broadway Junction","lat":40.6789,"lng":-73.9035},{"id":"Q2612917","name":"Franklin Avenue station (Fulton Street)","lat":40.6811,"lng":-73.9557},{"id":"Q2612939","name":"Freeman Street station","lat":40.83,"lng":-73.891667},{"id":"Q2613024","name":"Intervale Avenue station","lat":40.8221585,"lng":-73.8967991},{"id":"Q2614969","name":"18th Avenue","lat":40.6296,"lng":-73.977},{"id":"Q2614974","name":"Coney Island-Stilwell Avenue","lat":40.5773,"lng":-73.9811},{"id":"Q2615482","name":"Brighton Beach","lat":40.5776,"lng":-73.9616},{"id":"Q2499351","name":"Jackson Avenue","lat":40.816388888,"lng":-73.908055555},{"id":"Q2513869","name":"238th Street","lat":40.884722,"lng":-73.900556},{"id":"Q2515814","name":"225th Street","lat":40.887778,"lng":-73.860278},{"id":"Q2522439","name":"Ozone Park – Lefferts Boulevard","lat":40.6862,"lng":-73.8242},{"id":"Q2531232","name":"233rd Street","lat":40.893333,"lng":-73.857222},{"id":"Q2616277","name":"Myrtle Avenue station","lat":40.6969,"lng":-73.9353},{"id":"Q2616784","name":"121st Street","lat":40.7004,"lng":-73.8289},{"id":"Q2631124","name":"Van Cortlandt Park – 242nd Street","lat":40.889167,"lng":-73.898333},{"id":"Q2605411","name":"Myrtle–Wyckoff Avenues","lat":40.699511,"lng":-73.911166},{"id":"Q2611936","name":"33rd Street – Rawson Street","lat":40.744616666,"lng":-73.931305555},{"id":"Q2612181","name":"161st Street–Yankee Stadium station","lat":40.8279,"lng":-73.9259},{"id":"Q2555514","name":"Mets – Willets Point","lat":40.754722222,"lng":-73.845555555},{"id":"Q2566977","name":"111th Street","lat":40.6969,"lng":-73.8372},{"id":"Q4792264","name":"Arlington","lat":40.7695453,"lng":-74.1404213},{"id":"Q4883431","name":"Bellaire","lat":40.714647,"lng":-73.748033},{"id":"Q4883817","name":"Bellerose","lat":40.7221,"lng":-73.7166},{"id":"Q4884403","name":"Belmont Park","lat":40.713655,"lng":-73.728299},{"id":"Q4890280","name":"Benson Street","lat":40.804694444,"lng":-74.199027777},{"id":"Q5399797","name":"Essex Street","lat":40.8793,"lng":-74.0516},{"id":"Q5126845","name":"Clarenceville","lat":40.692,"lng":-73.8353},{"id":"Q5056975","name":"Cedarhurst station","lat":40.622214,"lng":-73.726121},{"id":"Q4928222","name":"Bloomfield","lat":40.7925,"lng":-74.200833},{"id":"Q5172112","name":"Corona","lat":40.745917,"lng":-73.86425},{"id":"Q4974847","name":"Brooklyn Hills","lat":40.695,"lng":-73.845},{"id":"Q5031023","name":"Canal Street","lat":40.704303,"lng":-73.790864},{"id":"Q5043015","name":"Carlton Hill","lat":40.8422,"lng":-74.114},{"id":"Q5133166","name":"Clifton","lat":40.8679,"lng":-74.1535},{"id":"Q4972385","name":"Broadway","lat":40.761626,"lng":-73.801383},{"id":"Q4948435","name":"Botanical Garden station","lat":40.8671,"lng":-73.8819},{"id":"Q5462925","name":"Flushing – Main Street","lat":40.757989,"lng":-73.831086},{"id":"Q5362247","name":"Elizabeth station","lat":40.6678,"lng":-74.215},{"id":"Q5366763","name":"Elmhurst station","lat":40.741389,"lng":-73.879389},{"id":"Q5567992","name":"Glen Ridge","lat":40.8002,"lng":-74.2043},{"id":"Q5568342","name":"Glendale","lat":40.7066,"lng":-73.8782},{"id":"Q5468057","name":"Fordham station","lat":40.861534,"lng":-73.890561},{"id":"Q5468950","name":"Forest Hills","lat":40.7195,"lng":-73.8449},{"id":"Q109659973","name":"74 Street–Broadway","lat":40.74688,"lng":-73.89125},{"id":"Q5559278","name":"Gibson","lat":40.649927,"lng":-73.701694},{"id":"Q5302198","name":"Douglaston","lat":40.768,"lng":-73.7496},{"id":"Q5584030","name":"Goose Creek","lat":40.632889,"lng":-73.822361},{"id":"Q5595118","name":"Grand Street","lat":40.733778,"lng":-73.883667},{"id":"Q5430630","name":"Fairmount Avenue","lat":40.90361111,"lng":-74.04722222},{"id":"Q4875690","name":"Beach Channel","lat":40.598333333,"lng":-73.811666666},{"id":"Q4874122","name":"Bay Street","lat":40.8079,"lng":-74.2089},{"id":"Q4874820","name":"Bayside","lat":40.763105,"lng":-73.771804},{"id":"Q5434603","name":"Far Rockaway","lat":40.60861,"lng":-73.750792},{"id":"Q5748552","name":"Hewlett","lat":40.636737,"lng":-73.705151},{"id":"Q5636723","name":"Haberman station","lat":40.7228,"lng":-73.9141},{"id":"Q5503001","name":"Fresh Pond","lat":40.7122,"lng":-73.8989},{"id":"Q5599611","name":"Great Neck","lat":40.787235,"lng":-73.725986},{"id":"Q5599701","name":"Great Notch","lat":40.8738,"lng":-74.2058},{"id":"Q5763877","name":"Hillside station","lat":40.706529,"lng":-73.782715},{"id":"Q5754209","name":"Higbie Avenue","lat":40.6723,"lng":-73.7601},{"id":"Q5757842","name":"Highbridge Facility","lat":40.838194,"lng":-73.931389},{"id":"Q5758657","name":"Highland Avenue","lat":40.7656,"lng":-74.245},{"id":"Q5523041","name":"Garfield","lat":40.8664,"lng":-74.1054},{"id":"Q5315759","name":"Dunton","lat":40.696708,"lng":-73.818694},{"id":"Q5329034","name":"East New York","lat":40.676053,"lng":-73.905925},{"id":"Q5644847","name":"Hamilton Beach","lat":40.651569,"lng":-73.827236},{"id":"Q5645587","name":"Hammels","lat":40.591361111,"lng":-73.809416666},{"id":"Q5329078","name":"East Orange station","lat":40.7613,"lng":-74.211},{"id":"Q7702631","name":"Terminal A","lat":40.687194444,"lng":-74.181888888},{"id":"Q7702634","name":"Terminal B","lat":40.690777777,"lng":-74.176722222},{"id":"Q7702643","name":"Terminal C","lat":40.696027777,"lng":-74.177472222},{"id":"Q5658643","name":"Harlem–125th Street station","lat":40.8052,"lng":-73.939},{"id":"Q6500093","name":"Laurelton","lat":40.66853,"lng":-73.7518},{"id":"Q6061492","name":"Inwood","lat":40.612291,"lng":-73.744311},{"id":"Q6503768","name":"Lawrence","lat":40.615638,"lng":-73.73605},{"id":"Q7117838","name":"P1","lat":40.685033,"lng":-74.190931},{"id":"Q7117895","name":"P3","lat":40.689638888,"lng":-74.187361111},{"id":"Q7117915","name":"P4","lat":40.696722222,"lng":-74.182111111},{"id":"Q14705806","name":"Newark Liberty International Airport","lat":40.7044,"lng":-74.1907},{"id":"Q6468704","name":"Lackawanna Terminal","lat":40.8114,"lng":-74.2133},{"id":"Q6825413","name":"Mets – Willets Point","lat":40.752516,"lng":-73.843725},{"id":"Q16449199","name":"P2","lat":40.687361111,"lng":-74.190777777},{"id":"Q5944797","name":"Hunterspoint Avenue station","lat":40.742222,"lng":-73.947222},{"id":"Q6413254","name":"Kingsland","lat":40.8101,"lng":-74.1172},{"id":"Q5937334","name":"Yankees – East 153rd Street","lat":40.825375,"lng":-73.930267},{"id":"Q6651110","name":"Little Neck","lat":40.775,"lng":-73.740744},{"id":"Q5918924","name":"Howard","lat":40.647,"lng":-73.828},{"id":"Q6397893","name":"Kew Gardens","lat":40.7096,"lng":-73.8307},{"id":"Q6913731","name":"Morris Heights","lat":40.854,"lng":-73.9199},{"id":"Q7061988","name":"Nostrand Avenue","lat":40.67845,"lng":-73.9494},{"id":"Q6666141","name":"Locust Manor","lat":40.675022,"lng":-73.764897},{"id":"Q6904595","name":"Montclair Heights","lat":40.8576,"lng":-74.2026},{"id":"Q6904608","name":"Montclair State University Station at Little Falls","lat":40.8695,"lng":-74.1975},{"id":"Q7161343","name":"Pelham station","lat":40.91003,"lng":-73.80891},{"id":"Q7055295","name":"North Elizabeth","lat":40.68,"lng":-74.206388888},{"id":"Q6552270","name":"Linden","lat":40.6293,"lng":-74.2522},{"id":"Q6803374","name":"Meadowlands","lat":40.8128,"lng":-74.0719},{"id":"Q7164349","name":"Penny Bridge","lat":40.729,"lng":-73.9314},{"id":"Q7963661","name":"Walnut Street","lat":40.8173,"lng":-74.2098},{"id":"Q7116638","name":"Ozone Park","lat":40.684444,"lng":-73.841875},{"id":"Q6924368","name":"Mount Vernon East station","lat":40.911942,"lng":-73.831678},{"id":"Q6924417","name":"Mount Vernon West","lat":40.913,"lng":-73.8502},{"id":"Q6924872","name":"Mountain Avenue","lat":40.849167,"lng":-74.205833},{"id":"Q6925239","name":"Mountain Station","lat":40.754722,"lng":-74.253611},{"id":"Q6813634","name":"Melrose station","lat":40.8257,"lng":-73.9154},{"id":"Q6783902","name":"Maspeth","lat":40.7228,"lng":-73.9141},{"id":"Q7973193","name":"Watchung Avenue","lat":40.8296,"lng":-74.20705},{"id":"Q7099498","name":"Orange","lat":40.771667,"lng":-74.233889},{"id":"Q7270830","name":"Queens Village","lat":40.717469,"lng":-73.73638},{"id":"Q7011306","name":"New Rochelle station","lat":40.912317,"lng":-73.784936},{"id":"Q7016633","name":"Newark Broad Street Station","lat":40.747222,"lng":-74.172222},{"id":"Q7976578","name":"Wayne Route 23 Transit Center","lat":40.8993,"lng":-74.2561},{"id":"Q6939296","name":"Murray Hill","lat":40.762703,"lng":-73.814446},{"id":"Q7371878","name":"Rowe Street","lat":40.7957,"lng":-74.18369},{"id":"Q7383316","name":"Rutherford","lat":40.8283,"lng":-74.1017},{"id":"Q7309518","name":"Rego Park","lat":40.725833,"lng":-73.861667},{"id":"Q7974770","name":"Watsessing Avenue","lat":40.7827,"lng":-74.1986},{"id":"Q7706076","name":"Teterboro","lat":40.8648,"lng":-74.0628},{"id":"Q7368158","name":"Rosedale","lat":40.6659,"lng":-73.7356},{"id":"Q6672667","name":"Long Island City","lat":40.741389,"lng":-73.956944},{"id":"Q7759490","name":"The Raunt","lat":40.619667,"lng":-73.818944},{"id":"Q7368726","name":"Roseville Avenue","lat":40.755139,"lng":-74.191778},{"id":"Q8025001","name":"Winfield Junction","lat":40.7366,"lng":-73.8948},{"id":"Q7649349","name":"Susquehanna Transfer","lat":40.7763,"lng":-74.0419},{"id":"Q7330863","name":"Richmond Hill","lat":40.700556,"lng":-73.832222},{"id":"Q8032715","name":"Woodhaven Junction","lat":40.689444,"lng":-73.844333},{"id":"Q8032147","name":"Wood-Ridge","lat":40.8437,"lng":-74.0789},{"id":"Q7838137","name":"Tremont station","lat":40.8472,"lng":-73.8997},{"id":"Q7202873","name":"Plauderville","lat":40.887,"lng":-74.1025},{"id":"Q7138700","name":"Parkside","lat":40.71185,"lng":-73.85667},{"id":"Q7142502","name":"Passaic","lat":40.8494,"lng":-74.1337},{"id":"Q7142516","name":"Passaic Park","lat":40.847719,"lng":-74.12245},{"id":"Q7144576","name":"Paterson","lat":40.9146,"lng":-74.1673},{"id":"Q7885326","name":"Union","lat":40.6833,"lng":-74.2386},{"id":"Q7984082","name":"Wesmont","lat":40.8575,"lng":-74.096},{"id":"Q7984323","name":"West Arlington","lat":40.7761,"lng":-74.1493},{"id":"Q7137924","name":"Park Place","lat":40.7397,"lng":-74.1677},{"id":"Q7894730","name":"University Heights","lat":40.8614,"lng":-73.9147},{"id":"Q7898806","name":"Upper Montclair","lat":40.842083333,"lng":-74.209472222},{"id":"Q7581641","name":"Spuyten Duyvil","lat":40.8789,"lng":-73.9227},{"id":"Q7586745","name":"St. Albans","lat":40.691052,"lng":-73.765426},{"id":"Q6755190","name":"Marble Hill","lat":40.8743,"lng":-73.9109},{"id":"Q7961034","name":"Wakefield station","lat":40.9062,"lng":-73.8554},{"id":"Q7922339","name":"Verona","lat":40.83759,"lng":-74.25263},{"id":"Q7580959","name":"Springfield Gardens","lat":40.675464,"lng":-73.75538},{"id":"Q8032998","name":"Woodlawn station","lat":40.8955,"lng":-73.8628},{"id":"Q8033108","name":"Woodmere","lat":40.631298,"lng":-73.71374},{"id":"Q6749206","name":"Manhasset","lat":40.7967,"lng":-73.7},{"id":"Q7912212","name":"Valley Stream","lat":40.661483,"lng":-73.704679},{"id":"Q8020990","name":"Williams Bridge station","lat":40.8788,"lng":-73.8707},{"id":"Q13576577","name":"New Bridge Landing","lat":40.9112,"lng":-74.036},{"id":"Q11310077","name":"Jamaica","lat":40.699722222,"lng":-73.807777777},{"id":"Q15241243","name":"Newark Broad Street station","lat":40.73395,"lng":-74.17264},{"id":"Q12056116","name":"Delawanna railway station","lat":40.8317,"lng":-74.1314},{"id":"Q14705452","name":"Brick Church","lat":40.7656,"lng":-74.2194},{"id":"Q14705710","name":"Little Falls","lat":40.8806,"lng":-74.2353},{"id":"Q14705724","name":"Lyndhurst","lat":40.8163,"lng":-74.1242},{"id":"Q14705844","name":"Passaic Junction","lat":40.9023,"lng":-74.104},{"id":"Q14706201","name":"Brooklyn Manor","lat":40.6949,"lng":-73.8472},{"id":"Q14706386","name":"Hollis","lat":40.7102,"lng":-73.7666},{"id":"Q14706772","name":"Laurel Hill","lat":40.7268,"lng":-73.9236},{"id":"Q14707069","name":"New York, Westchester and Boston Railroad Administration Building","lat":40.8414,"lng":-73.8731},{"id":"Q16987261","name":"Woodhaven","lat":40.6855,"lng":-73.857},{"id":"Q16980231","name":"Culver Depot","lat":40.575235,"lng":-73.973338},{"id":"Q18619264","name":"Metropolitan Avenue station","lat":40.7137,"lng":-73.9194},{"id":"Q18619325","name":"Rockaway Junction","lat":40.7065,"lng":-73.7827},{"id":"Q16899271","name":"Ridgewood (LIRR Lower Montauk station)","lat":40.7066,"lng":-73.8782},{"id":"Q19364893","name":"Willow Tree station","lat":40.7078,"lng":-73.7767},{"id":"Q19818578","name":"Cedar Manor station","lat":40.6887,"lng":-73.787},{"id":"Q19818641","name":"Maspeth station","lat":40.7284,"lng":-73.9122},{"id":"Q18755104","name":"Far Rockaway – Lockwood's Grove","lat":40.6025,"lng":-73.7547},{"id":"Q16999017","name":"Lake View","lat":40.8908,"lng":-74.1498},{"id":"Q18619377","name":"Westbridge","lat":40.7016,"lng":-73.822},{"id":"Q19876218","name":"Fifth Street station","lat":40.7216,"lng":-73.951},{"id":"Q19876401","name":"Humboldt Street","lat":40.7189,"lng":-73.9444},{"id":"Q19877102","name":"Myrtle Avenue station","lat":40.6994,"lng":-73.9122},{"id":"Q28197624","name":"Englewood","lat":40.89527,"lng":-73.9749},{"id":"Q28197653","name":"Morrisania","lat":40.831837,"lng":-73.908265},{"id":"Q19866657","name":"Whitestone Landing","lat":40.7939,"lng":-73.8076},{"id":"Q19866977","name":"Grand Street station","lat":40.7142,"lng":-73.932},{"id":"Q19867125","name":"Greenpoint station","lat":40.7257,"lng":-73.9587},{"id":"Q19867793","name":"Harrison station","lat":40.7451,"lng":-74.1606},{"id":"Q25197239","name":"Vreeland Avenue","lat":40.895462,"lng":-74.13674},{"id":"Q19874444","name":"Bushwick","lat":40.7079,"lng":-73.9385},{"id":"Q20011467","name":"South Eighth Street station","lat":40.7101,"lng":-73.9686},{"id":"Q54933033","name":"Harmon Cove station","lat":40.7813,"lng":-74.079},{"id":"Q39069983","name":"138th Street station","lat":40.813,"lng":-73.93},{"id":"Q39070778","name":"Claremont Park","lat":40.8396,"lng":-73.9041},{"id":"Q50805633","name":"Elizabeth station","lat":40.6668,"lng":-74.2158},{"id":"Q48740453","name":"South Street station","lat":40.723333333,"lng":-74.175694444},{"id":"Q62050985","name":"Bogota station","lat":40.8772153,"lng":-74.0339805},{"id":"Q61014578","name":"Hackensack station","lat":40.883879,"lng":-74.04282},{"id":"Q62768426","name":"Grove Street station","lat":40.75819444,"lng":-74.20225},{"id":"Q55600338","name":"110th Street station (New York Central Railroad)","lat":40.795502,"lng":-73.946057},{"id":"Q55602838","name":"59th Street","lat":40.762941,"lng":-73.969752},{"id":"Q96381332","name":"Hudson Avenue station","lat":40.910277777,"lng":-73.968333333},{"id":"Q85759053","name":"Elmont station","lat":40.720349,"lng":-73.724895},{"id":"Q104858566","name":"Whitestone – 14th Avenue","lat":40.787222222,"lng":-73.814444444},{"id":"Q109975297","name":"Co-op City station","lat":40.8593,"lng":-73.8268},{"id":"Q107994668","name":"Myrtle Avenue station","lat":40.700833333,"lng":-73.894166666},{"id":"Q106372216","name":"Broadway–Paterson station","lat":40.917111,"lng":-74.1553731},{"id":"Q106041002","name":"69th Street station","lat":40.801873,"lng":-74.026798},{"id":"Q110078278","name":"Morris Park station","lat":40.8507,"lng":-73.8432},{"id":"Q110078406","name":"Parkchester/Van Nest station","lat":40.8419,"lng":-73.8626},{"id":"Q110094711","name":"Hunts Point station","lat":40.8204,"lng":-73.8892},{"id":"Q111083990","name":"Bartow station","lat":40.8689,"lng":-73.813},{"id":"Q115821046","name":"North Newark station","lat":40.78001,"lng":-74.156233},{"id":"Q112114582","name":"Rugby station","lat":40.6475,"lng":-73.913333333},{"id":"Q112114585","name":"Kouwenhoven station","lat":40.638333333,"lng":-73.925833333},{"id":"Q131549600","name":"Ferry Street station","lat":40.73184,"lng":-74.16162},{"id":"Q131549737","name":"East Ferry Street station","lat":40.72981,"lng":-74.14858},{"id":"Q131549969","name":"Newark Transfer station","lat":40.72421,"lng":-74.12598},{"id":"Q116939320","name":"East Paterson station","lat":40.9037,"lng":-74.1273},{"id":"Q136565852","name":"Pelham Manor station","lat":40.889722222,"lng":-73.800833333},{"id":"Q638007","name":"Christopher Street – Stonewall","lat":40.733333,"lng":-74.002778},{"id":"Q648421","name":"Howard Beach – JFK Airport","lat":40.6604,"lng":-73.8303},{"id":"Q643274","name":"Bay Parkway","lat":40.6209,"lng":-73.9752},{"id":"Q629433","name":"Knickerbocker Avenue","lat":40.6987,"lng":-73.9184},{"id":"Q629885","name":"Carroll Street","lat":40.6802,"lng":-73.9948},{"id":"Q633313","name":"Forest Avenue","lat":40.7046,"lng":-73.902},{"id":"Q657681","name":"East 105th Street station","lat":40.6513,"lng":-73.899},{"id":"Q660492","name":"City Hall","lat":40.7132,"lng":-74.0071},{"id":"Q649968","name":"Sutphin Boulevard – Archer Avenue – JFK Airport","lat":40.7005,"lng":-73.8077},{"id":"Q964421","name":"18th Street","lat":40.737,"lng":-73.989},{"id":"Q583618","name":"79th Street","lat":40.6134,"lng":-74.0015},{"id":"Q2254337","name":"City Hall","lat":40.712611111,"lng":-74.006694444},{"id":"Q999188","name":"91st Street","lat":40.7914,"lng":-73.9741},{"id":"Q594076","name":"Hewes Street","lat":40.7067,"lng":-73.953},{"id":"Q594409","name":"Clark Street","lat":40.6975,"lng":-73.993055555},{"id":"Q586518","name":"Classon Avenue","lat":40.6888,"lng":-73.96},{"id":"Q585064","name":"East 180th Street","lat":40.841111,"lng":-73.874167},{"id":"Q585278","name":"25th Street","lat":40.6604,"lng":-73.99809},{"id":"Q578462","name":"Beach 60th Street","lat":40.5924,"lng":-73.7885},{"id":"Q923666","name":"Chauncey Street station","lat":40.6826,"lng":-73.9101},{"id":"Q919301","name":"Seventh Avenue","lat":40.6794,"lng":-73.9737},{"id":"Q920773","name":"Lorimer Street station","lat":40.7041,"lng":-73.9479},{"id":"Q922697","name":"Avenue U station","lat":40.5961,"lng":-73.9733},{"id":"Q939753","name":"28th Street","lat":40.74329,"lng":-73.984165},{"id":"Q1884273","name":"86th Street","lat":40.788056,"lng":-73.976389},{"id":"Q1888415","name":"167th Street station","lat":40.8345,"lng":-73.9177},{"id":"Q1896000","name":"Gun Hill Road","lat":40.8702,"lng":-73.8458},{"id":"Q946410","name":"Eastern Parkway – Brooklyn Museum","lat":40.6716,"lng":-73.9628},{"id":"Q1959768","name":"190th Street","lat":40.858972222,"lng":-73.934027777},{"id":"Q11265","name":"Times Square–42nd Street/Port Authority Bus Terminal","lat":40.756,"lng":-73.987},{"id":"Q1937702","name":"Westchester Square–East Tremont Avenue station","lat":40.8406,"lng":-73.8421},{"id":"Q1941831","name":"Canal Street","lat":40.7225,"lng":-74.006111},{"id":"Q1942191","name":"55th Street","lat":40.6319,"lng":-73.9957},{"id":"Q2015285","name":"145th Street","lat":40.820555555,"lng":-73.936111111},{"id":"Q2102181","name":"175th Street","lat":40.8465,"lng":-73.9401},{"id":"Q1910136","name":"Pennsylvania Avenue","lat":40.6647,"lng":-73.8941},{"id":"Q1910673","name":"Flushing–Main Street station","lat":40.759522222,"lng":-73.830316666},{"id":"Q1912767","name":"Franklin Street","lat":40.718889,"lng":-74.006944},{"id":"Q605495","name":"49th Street","lat":40.7604,"lng":-73.9838},{"id":"Q1943858","name":"40th Street–Lowery Street station","lat":40.743811111,"lng":-73.924177777},{"id":"Q1948534","name":"86th Street","lat":40.7853,"lng":-73.9693},{"id":"Q1983255","name":"West Farms Square – East Tremont Avenue","lat":40.84,"lng":-73.880278},{"id":"Q1967776","name":"Avenue U","lat":40.5965,"lng":-73.979},{"id":"Q1968287","name":"Greenpoint Avenue","lat":40.7302,"lng":-73.9543},{"id":"Q2931557","name":"Myrtle Avenue","lat":40.6937,"lng":-73.9833},{"id":"Q1917561","name":"Malcolm X Plaza–110th Street station","lat":40.798056,"lng":-73.9525},{"id":"Q1922437","name":"135th Street","lat":40.813889,"lng":-73.940833},{"id":"Q1924691","name":"28th Street","lat":40.7452,"lng":-73.9888},{"id":"Q1928678","name":"Jamaica – 179th Street","lat":40.7125,"lng":-73.7845},{"id":"Q606657","name":"Jefferson Street","lat":40.707,"lng":-73.9236},{"id":"Q1976258","name":"DeKalb Avenue station (BMT Canarsie Line)","lat":40.7043,"lng":-73.9193},{"id":"Q1976413","name":"50th Street","lat":40.6361,"lng":-73.995},{"id":"Q1981131","name":"168th Street","lat":40.840833,"lng":-73.939444},{"id":"Q2442219","name":"181st Street","lat":40.850891,"lng":-73.938289},{"id":"Q2480842","name":"Sutter Avenue–Rutland Road station","lat":40.6649,"lng":-73.9229},{"id":"Q1930001","name":"Fordham Road","lat":40.8627,"lng":-73.9011},{"id":"Q1936475","name":"Ralph Avenue","lat":40.6788,"lng":-73.9217},{"id":"Q1969782","name":"Lafayette Avenue","lat":40.6863,"lng":-73.9745},{"id":"Q667049","name":"Harlem–148th Street","lat":40.823889,"lng":-73.936944},{"id":"Q2612438","name":"Worth Street","lat":40.7155,"lng":-74.003},{"id":"Q2612725","name":"163rd Street – Amsterdam Avenue","lat":40.8369,"lng":-73.9401},{"id":"Q2613321","name":"Fifth Avenue / 53rd Street","lat":40.760277777,"lng":-73.975555555},{"id":"Q663865","name":"145th Street station","lat":40.826389,"lng":-73.950278},{"id":"Q664340","name":"Third Avenue – 149th Street","lat":40.815833,"lng":-73.9175},{"id":"Q693299","name":"75th Avenue","lat":40.7186,"lng":-73.8377},{"id":"Q1984831","name":"170th Street station","lat":40.8388,"lng":-73.9137},{"id":"Q2478033","name":"23rd Street","lat":40.743889,"lng":-73.995556},{"id":"Q2478212","name":"36th Street","lat":40.752,"lng":-73.9279},{"id":"Q2478345","name":"23rd Street","lat":40.7429,"lng":-73.9929},{"id":"Q673884","name":"36th Street station","lat":40.6544,"lng":-74.0045},{"id":"Q951520","name":"Bedford–Nostrand Avenues","lat":40.6896,"lng":-73.9536},{"id":"Q2481813","name":"Bushwick Avenue – Aberdeen Street","lat":40.6828,"lng":-73.9052},{"id":"Q967555","name":"DeKalb Avenue station (BMT Lines)","lat":40.69064,"lng":-73.98184},{"id":"Q681005","name":"Fordham Road station","lat":40.8624,"lng":-73.8971},{"id":"Q682696","name":"Beach 44th Street","lat":40.5929,"lng":-73.776},{"id":"Q3498505","name":"42nd Street – Port Authority Bus Terminal","lat":40.7572,"lng":-73.9898},{"id":"Q3499093","name":"Sixth Avenue","lat":40.7373,"lng":-73.9967},{"id":"Q3499219","name":"21st Street–Queensbridge station","lat":40.754166666,"lng":-73.9425},{"id":"Q3504355","name":"14th Street","lat":40.738333,"lng":-73.999444},{"id":"Q768988","name":"Broad Street","lat":40.706944444,"lng":-74.010833333},{"id":"Q744055","name":"Livonia Avenue","lat":40.6637,"lng":-73.9005},{"id":"Q2880976","name":"Marble Hill–225th Street station","lat":40.874444444,"lng":-73.909722222},{"id":"Q2485895","name":"137th Street – City College","lat":40.821389,"lng":-73.954167},{"id":"Q2486052","name":"86th Street","lat":40.5927,"lng":-73.9783},{"id":"Q2887299","name":"72nd Street","lat":40.779,"lng":-73.981861111},{"id":"Q2061415","name":"52nd Street","lat":40.744036111,"lng":-73.912863888},{"id":"Q2502126","name":"Kings Highway","lat":40.609166666,"lng":-73.958888888},{"id":"Q2070847","name":"77th Street","lat":40.7736,"lng":-73.9599},{"id":"Q2224706","name":"33rd Street","lat":40.746388888,"lng":-73.981944444},{"id":"Q2224825","name":"Crescent Street station","lat":40.6837,"lng":-73.8724},{"id":"Q2227502","name":"Morgan Avenue","lat":40.7063,"lng":-73.932},{"id":"Q2488977","name":"Avenue J","lat":40.6253,"lng":-73.9614},{"id":"Q2490165","name":"Rockaway Park–Beach 116th Street station","lat":40.5807,"lng":-73.8362},{"id":"Q2524318","name":"79th Street","lat":40.783611,"lng":-73.98},{"id":"Q2066424","name":"Cathedral Parkway–110th Street","lat":40.8005,"lng":-73.9582},{"id":"Q2509975","name":"Zerega Avenue station","lat":40.8368,"lng":-73.8468},{"id":"Q2075731","name":"Bay Ridge Avenue","lat":40.6337,"lng":-74.0238},{"id":"Q2076201","name":"96th Street","lat":40.794444,"lng":-73.971667},{"id":"Q2083213","name":"Houston Street","lat":40.7286,"lng":-74.0053},{"id":"Q2512430","name":"Jamaica–Van Wyck station","lat":40.7019,"lng":-73.8166},{"id":"Q779178","name":"Avenue X","lat":40.5901,"lng":-73.9741},{"id":"Q2126108","name":"183rd Street","lat":40.8583,"lng":-73.904},{"id":"Q2130771","name":"Spring Street station","lat":40.722222222,"lng":-73.997222222},{"id":"Q2103654","name":"Rockaway Avenue station","lat":40.6782,"lng":-73.9108},{"id":"Q2104084","name":"Nostrand Avenue station","lat":40.680555555,"lng":-73.949722222},{"id":"Q2089166","name":"Bergen Street","lat":40.6808,"lng":-73.9751},{"id":"Q2066987","name":"Steinway Street","lat":40.7587,"lng":-73.9189},{"id":"Q2068727","name":"Halsey Street station","lat":40.6961,"lng":-73.905},{"id":"Q2069431","name":"182nd–183rd Streets","lat":40.8568,"lng":-73.9003},{"id":"Q254416","name":"Broadway","lat":40.7054,"lng":-73.9502},{"id":"Q302474","name":"Myrtle–Willoughby Avenues","lat":40.6946,"lng":-73.9491},{"id":"Q2513528","name":"Wakefield–241st Street","lat":40.903333,"lng":-73.850278},{"id":"Q2514165","name":"103rd Street – Corona Plaza","lat":40.749880555,"lng":-73.862733333},{"id":"Q2515468","name":"18th Street","lat":40.740833,"lng":-73.997778},{"id":"Q2515975","name":"Kingston Avenue station","lat":40.6694,"lng":-73.9422},{"id":"Q2095015","name":"Baychester Avenue","lat":40.8786,"lng":-73.8386},{"id":"Q2095094","name":"69th Street","lat":40.746258333,"lng":-73.89685},{"id":"Q2096739","name":"46th Street","lat":40.7567,"lng":-73.9143},{"id":"Q870982","name":"Lexington Avenue/59th Street","lat":40.7625,"lng":-73.9679},{"id":"Q2131874","name":"Second Avenue","lat":40.7236,"lng":-73.9911},{"id":"Q2133202","name":"Clinton–Washington Avenues","lat":40.6881,"lng":-73.9669},{"id":"Q2115909","name":"72nd Street","lat":40.7762,"lng":-73.976},{"id":"Q2116957","name":"Beverley Road station","lat":40.6446,"lng":-73.9645},{"id":"Q2124833","name":"169th Street","lat":40.7106,"lng":-73.7931},{"id":"Q2113616","name":"Northern Boulevard","lat":40.7532,"lng":-73.9069},{"id":"Q4754240","name":"Anderson – Jerome Avenue","lat":40.8307292,"lng":-73.9273265},{"id":"Q4816261","name":"Atlantic station","lat":40.5154,"lng":-74.2457},{"id":"Q4838889","name":"Bachmann","lat":40.6167,"lng":-74.0717},{"id":"Q4891582","name":"Bergenline Avenue station","lat":40.7821,"lng":-74.0219},{"id":"Q4767761","name":"Annadale","lat":40.5404,"lng":-74.1784},{"id":"Q521682","name":"Bay 50th Street","lat":40.5893,"lng":-73.9841},{"id":"Q4859954","name":"Barclay Street","lat":40.7136,"lng":-74.0117},{"id":"Q4792270","name":"Arlington","lat":40.6335,"lng":-74.1661},{"id":"Q4796042","name":"Arrochar","lat":40.5997,"lng":-74.0665},{"id":"Q4799356","name":"Arthur Kill","lat":40.5168,"lng":-74.2416},{"id":"Q548622","name":"Cortlandt Street","lat":40.7107,"lng":-74.0112},{"id":"Q1809285","name":"Church Avenue","lat":40.642777777,"lng":-73.979444444},{"id":"Q1810428","name":"Kosciuszko Street station","lat":40.6932,"lng":-73.9286},{"id":"Q1810563","name":"81st Street – Museum of Natural History","lat":40.782,"lng":-73.9718},{"id":"Q4881875","name":"Belair Road","lat":40.6103,"lng":-74.0672},{"id":"Q4869875","name":"Battery Place","lat":40.7045,"lng":-74.015},{"id":"Q4874136","name":"Bay Terrace","lat":40.5566,"lng":-74.1366},{"id":"Q572625","name":"191st Street","lat":40.855278,"lng":-73.929167},{"id":"Q526612","name":"59th Street","lat":40.641388888,"lng":-74.017777777},{"id":"Q2379602","name":"East Broadway station","lat":40.7142,"lng":-73.9903},{"id":"Q2382093","name":"Bergen Street","lat":40.6873,"lng":-73.99},{"id":"Q1815835","name":"Fort Hamilton Parkway station","lat":40.6515,"lng":-73.9759},{"id":"Q1821857","name":"138th Street–Grand Concourse station","lat":40.813,"lng":-73.93},{"id":"Q1826870","name":"116th Street – Columbia University","lat":40.808055555,"lng":-73.963888888},{"id":"Q1841026","name":"103rd Street","lat":40.796,"lng":-73.9614},{"id":"Q1031991","name":"33rd Street","lat":40.7485384,"lng":-73.9887001},{"id":"Q2384549","name":"Bay Parkway","lat":40.6129,"lng":-73.982},{"id":"Q2396800","name":"Jackson Heights–Roosevelt Avenue/74th Street","lat":40.7468,"lng":-73.8915},{"id":"Q2399529","name":"34th Street – Penn Station","lat":40.750833,"lng":-73.990833},{"id":"Q1865158","name":"Roosevelt Island","lat":40.759188,"lng":-73.953438},{"id":"Q4972442","name":"Broadway Ferry","lat":40.71078056,"lng":-73.96830833},{"id":"Q4974198","name":"Bronx Park Terminal","lat":40.8158,"lng":-73.9182},{"id":"Q4974734","name":"Brooklyn-Tompkins Avenue","lat":40.680068,"lng":-73.943691},{"id":"Q2392777","name":"77th Street station","lat":40.6285,"lng":-74.0259},{"id":"Q2395564","name":"Middle Village–Metropolitan Avenue","lat":40.7122,"lng":-73.8892},{"id":"Q4291979","name":"Metropolitan Avenue","lat":40.7024,"lng":-73.8172},{"id":"Q1872869","name":"103rd Street","lat":40.7903,"lng":-73.9477},{"id":"Q1873173","name":"Montrose Avenue","lat":40.7076,"lng":-73.9399},{"id":"Q1873598","name":"174th–175th Streets","lat":40.8459,"lng":-73.9102},{"id":"Q1877937","name":"Woodhaven Boulevard","lat":40.6936,"lng":-73.8522},{"id":"Q4925876","name":"Bleecker Street","lat":40.7281,"lng":-73.999},{"id":"Q4937229","name":"Boerum Place","lat":40.692136,"lng":-73.989034},{"id":"Q729394","name":"125th Street","lat":40.8075,"lng":-73.945278},{"id":"Q1866773","name":"Central Avenue","lat":40.698,"lng":-73.9252},{"id":"Q2586040","name":"Avenue N","lat":40.615,"lng":-73.9742},{"id":"Q2528147","name":"23rd Street","lat":40.7413,"lng":-73.9893},{"id":"Q4245562","name":"Queens Boulevard","lat":40.7025,"lng":-73.8145},{"id":"Q2611970","name":"90th Street – Elmhurst Avenue","lat":40.748333333,"lng":-73.876388888},{"id":"Q2612161","name":"Woodlawn","lat":40.886,"lng":-73.8788},{"id":"Q2612169","name":"Bedford Park Boulevard – Lehman College","lat":40.8735,"lng":-73.8898},{"id":"Q2612192","name":"149th Street–Grand Concourse","lat":40.818333,"lng":-73.927222},{"id":"Q2612205","name":"86th Street","lat":40.7795,"lng":-73.9556},{"id":"Q2612210","name":"Court Street – Borough Hall","lat":40.693611111,"lng":-73.990277777},{"id":"Q2612216","name":"82nd Street–Jackson Heights station","lat":40.747630555,"lng":-73.883827777},{"id":"Q2590604","name":"First Avenue station","lat":40.7313,"lng":-73.9826},{"id":"Q1989092","name":"110th Street","lat":40.7948,"lng":-73.9444},{"id":"Q2605243","name":"111th Street","lat":40.751713888,"lng":-73.855636111},{"id":"Q2612622","name":"Canal Street","lat":40.7219,"lng":-74.0054},{"id":"Q2612627","name":"Liberty Avenue station","lat":40.6744,"lng":-73.8965},{"id":"Q2612633","name":"Clinton–Washington Avenues station","lat":40.6832,"lng":-73.9659},{"id":"Q2612641","name":"Aqueduct – North Conduit Avenue","lat":40.6683,"lng":-73.834},{"id":"Q2612642","name":"Inwood – 207th Street","lat":40.867672,"lng":-73.921165},{"id":"Q2612647","name":"145th Street","lat":40.824,"lng":-73.9448},{"id":"Q2612649","name":"Grant Avenue","lat":40.6766,"lng":-73.8656},{"id":"Q2612658","name":"155th Street station (IND Eighth Avenue Line)","lat":40.8309,"lng":-73.9414},{"id":"Q2612701","name":"Jamaica Center – Parsons/Archer","lat":40.7024,"lng":-73.8},{"id":"Q2570712","name":"181st Street","lat":40.849444,"lng":-73.933333},{"id":"Q2572253","name":"Neck Road","lat":40.5951,"lng":-73.9553},{"id":"Q2611901","name":"Vernon Boulevard – Jackson Avenue","lat":40.7426,"lng":-73.9539},{"id":"Q2611930","name":"Hunters Point Avenue","lat":40.742380555,"lng":-73.949258333},{"id":"Q2611956","name":"Wall Street","lat":40.7063,"lng":-74.0095},{"id":"Q2580615","name":"Rector Street","lat":40.7077,"lng":-74.013},{"id":"Q743101","name":"Sheepshead Bay station","lat":40.5872,"lng":-73.9533},{"id":"Q1998489","name":"Seneca Avenue station","lat":40.7028,"lng":-73.9077},{"id":"Q2001751","name":"World Trade Center","lat":40.711787,"lng":-74.010525},{"id":"Q2612221","name":"Bowling Green","lat":40.7041,"lng":-74.0145},{"id":"Q2612287","name":"Hoyt Street","lat":40.6905,"lng":-73.9851},{"id":"Q2612361","name":"Grand Street","lat":40.7181,"lng":-73.9939},{"id":"Q2612366","name":"57th Street station","lat":40.7643,"lng":-73.9772},{"id":"Q2612593","name":"Brooklyn Bridge – City Hall / Chambers Street","lat":40.71288,"lng":-74.0043},{"id":"Q2612605","name":"Seventh Avenue","lat":40.763,"lng":-73.9819},{"id":"Q2612610","name":"23rd Street","lat":40.7453,"lng":-73.9985},{"id":"Q2612615","name":"Beach 25th Street","lat":40.6001,"lng":-73.7614},{"id":"Q2049816","name":"157th Street","lat":40.833889,"lng":-73.944444},{"id":"Q2051404","name":"Dyckman Street","lat":40.861389,"lng":-73.924722},{"id":"Q2540652","name":"39th Avenue","lat":40.7527,"lng":-73.9329},{"id":"Q2007665","name":"53rd Street station","lat":40.6436,"lng":-74.0155},{"id":"Q5173356","name":"Cortlandt Street","lat":40.7108,"lng":-74.0124},{"id":"Q5173358","name":"Cortlandt Street","lat":40.7104,"lng":-74.0112},{"id":"Q5178274","name":"Court Street-Myrtle Avenue","lat":40.693815,"lng":-73.990389},{"id":"Q5184430","name":"Crescent Street","lat":40.678182,"lng":-73.870685},{"id":"Q2020590","name":"Fort Hamilton Parkway station","lat":40.6321,"lng":-74.0065},{"id":"Q2021516","name":"Mosholu Parkway","lat":40.8797,"lng":-73.8847},{"id":"Q2612707","name":"116th Street","lat":40.8044,"lng":-73.9554},{"id":"Q2612734","name":"Jay Street – MetroTech","lat":40.69239,"lng":-73.9873},{"id":"Q2612742","name":"Utica Avenue","lat":40.6792,"lng":-73.9291},{"id":"Q5193836","name":"Cumberland Avenue","lat":40.685456,"lng":-73.972282},{"id":"Q2244828","name":"Canarsie – Rockaway Parkway","lat":40.6454,"lng":-73.9026},{"id":"Q2247103","name":"111th Street","lat":40.6847,"lng":-73.8311},{"id":"Q2563370","name":"Eighth Avenue station","lat":40.6346,"lng":-74.0107},{"id":"Q2565684","name":"Morris Park","lat":40.8544,"lng":-73.8604},{"id":"Q2566588","name":"125th Street station","lat":40.8043,"lng":-73.9375},{"id":"Q2235087","name":"Chambers Street","lat":40.715517,"lng":-74.009233},{"id":"Q2236256","name":"York Street","lat":40.7015,"lng":-73.9868},{"id":"Q2236599","name":"21st Street","lat":40.7446,"lng":-73.9487},{"id":"Q2239204","name":"Norwood – 205th Street","lat":40.8749,"lng":-73.8795},{"id":"Q2008502","name":"East 149th Street station","lat":40.8121,"lng":-73.9042},{"id":"Q2012339","name":"Eastchester–Dyre Avenue","lat":40.8891,"lng":-73.8306},{"id":"Q2014033","name":"104th Street","lat":40.6822,"lng":-73.8373},{"id":"Q2039032","name":"Dean Street","lat":40.6778,"lng":-73.9565},{"id":"Q2042249","name":"Bay Ridge – 95th Street","lat":40.6157,"lng":-74.0314},{"id":"Q2042310","name":"66th Street – Lincoln Center","lat":40.774167,"lng":-73.982222},{"id":"Q2042314","name":"Mount Eden Avenue Station","lat":40.8443,"lng":-73.9148},{"id":"Q2024981","name":"75th Street – Elderts Lane","lat":40.6914,"lng":-73.8665},{"id":"Q2027571","name":"Prince Street","lat":40.7242,"lng":-73.9978},{"id":"Q2257710","name":"Kingsbridge Road","lat":40.867777777,"lng":-73.897222222},{"id":"Q2033264","name":"23rd Street–Baruch College station","lat":40.7402,"lng":-73.9864},{"id":"Q2033763","name":"Rockaway Avenue","lat":40.6625,"lng":-73.9089},{"id":"Q5243931","name":"DeKalb Avenue","lat":40.690015,"lng":-73.963333},{"id":"Q2278502","name":"Cathedral Parkway – 110th Street","lat":40.803889,"lng":-73.966667},{"id":"Q2263110","name":"Broadway station","lat":40.762,"lng":-73.9254},{"id":"Q2271693","name":"Eighth Street – New York University","lat":40.7305,"lng":-73.9924},{"id":"Q5295817","name":"Dongan Hills","lat":40.589,"lng":-74.0959},{"id":"Q5263661","name":"Desbrosses Street","lat":40.7234,"lng":-74.0096},{"id":"Q2551983","name":"125th Street","lat":40.8108,"lng":-73.9527},{"id":"Q2555226","name":"47th–50th Streets – Rockefeller Center","lat":40.7586,"lng":-73.9814},{"id":"Q2283660","name":"Bedford Avenue","lat":40.7177,"lng":-73.9576},{"id":"Q2286335","name":"155th Street station","lat":40.8299,"lng":-73.9391},{"id":"Q2273325","name":"Sutter Avenue","lat":40.6684,"lng":-73.9018},{"id":"Q2273507","name":"80th Street station","lat":40.6794,"lng":-73.8578},{"id":"Q2275154","name":"Beverly Road","lat":40.6451,"lng":-73.9491},{"id":"Q4029052","name":"160th Street","lat":40.7036,"lng":-73.7992},{"id":"Q2615487","name":"Grand Army Plaza","lat":40.6746,"lng":-73.9705},{"id":"Q2615537","name":"Park Place","lat":40.6744,"lng":-73.9579},{"id":"Q2615543","name":"Church Avenue","lat":40.6497,"lng":-73.9636},{"id":"Q2615780","name":"Parkside Avenue","lat":40.6553,"lng":-73.9617},{"id":"Q2615787","name":"Prospect Park","lat":40.6615,"lng":-73.9625},{"id":"Q2615846","name":"Fort Hamilton Parkway","lat":40.6407,"lng":-73.9944},{"id":"Q2616059","name":"Bowery","lat":40.7203,"lng":-73.9941},{"id":"Q2616065","name":"Kingsbridge Road station","lat":40.8661,"lng":-73.8943},{"id":"Q2616265","name":"Tremont Avenue","lat":40.8495,"lng":-73.906},{"id":"Q2612992","name":"Bleecker Street (Lexington Avenue Line)","lat":40.7258,"lng":-73.9947},{"id":"Q2613028","name":"Beach 105th Street","lat":40.5832,"lng":-73.8276},{"id":"Q2613078","name":"Kingston–Throop Avenues","lat":40.6799,"lng":-73.9406},{"id":"Q2613094","name":"96th Street","lat":40.7916,"lng":-73.9647},{"id":"Q2613217","name":"Kew Gardens – Union Turnpike","lat":40.7141,"lng":-73.8308},{"id":"Q2613232","name":"34th Street – Penn Station","lat":40.7522,"lng":-73.9935},{"id":"Q2613326","name":"Woodhaven Boulevard","lat":40.7335,"lng":-73.8704},{"id":"Q2613332","name":"Forest Hills – 71st Avenue","lat":40.7214,"lng":-73.844},{"id":"Q2059228","name":"Union Street","lat":40.677222222,"lng":-73.983055555},{"id":"Q2291991","name":"Crown Heights–Utica Avenue","lat":40.6688,"lng":-73.9312},{"id":"Q2614658","name":"Prospect Avenue","lat":40.665277777,"lng":-73.993055555},{"id":"Q2614984","name":"Avenue I","lat":40.6259,"lng":-73.9762},{"id":"Q2615127","name":"West Eighth Street – New York Aquarium","lat":40.5762,"lng":-73.9758},{"id":"Q2615189","name":"Neptune Avenue","lat":40.5804,"lng":-73.9746},{"id":"Q2615206","name":"Ditmas Avenue station","lat":40.6363,"lng":-73.9782},{"id":"Q2613745","name":"Sutphin Boulevard","lat":40.7057,"lng":-73.8097},{"id":"Q2613750","name":"Parsons Boulevard","lat":40.7077,"lng":-73.8028},{"id":"Q2613925","name":"Avenue M","lat":40.6183,"lng":-73.9596},{"id":"Q2614058","name":"57th Street – Seventh Avenue","lat":40.7655,"lng":-73.9801},{"id":"Q2614271","name":"Smith–Ninth Streets","lat":40.674444444,"lng":-73.997222222},{"id":"Q2614375","name":"Seventh Avenue","lat":40.6668,"lng":-73.9816},{"id":"Q2614385","name":"45th Street station","lat":40.6494,"lng":-74.0094},{"id":"Q2614404","name":"86th Street","lat":40.6227,"lng":-74.0284},{"id":"Q2614653","name":"15th Street – Prospect Park","lat":40.660555555,"lng":-73.979166666},{"id":"Q2615214","name":"36th Avenue (BMT Astoria Line)","lat":40.7566,"lng":-73.9298},{"id":"Q2615221","name":"Avenue P station","lat":40.6087,"lng":-73.973},{"id":"Q2615224","name":"Franklin Avenue","lat":40.6707,"lng":-73.9585},{"id":"Q2615244","name":"Newkirk Plaza station","lat":40.6357,"lng":-73.963},{"id":"Q2615292","name":"Kings Highway station (BMT Sea Beach Line)","lat":40.6031,"lng":-73.9802},{"id":"Q2615298","name":"New Utrecht Avenue station","lat":40.62482,"lng":-73.99636},{"id":"Q2615309","name":"18th Avenue station (BMT Sea Beach Line)","lat":40.62,"lng":-73.9894},{"id":"Q2615473","name":"Avenue U","lat":40.5989,"lng":-73.9558},{"id":"Q2617310","name":"Flushing Avenue","lat":40.6997,"lng":-73.9502},{"id":"Q2617478","name":"Nostrand Avenue","lat":40.6698,"lng":-73.9505},{"id":"Q2617483","name":"Winthrop Street","lat":40.657,"lng":-73.9503},{"id":"Q2617491","name":"Junius Street station","lat":40.6636,"lng":-73.9015},{"id":"Q2617499","name":"Sterling Street station","lat":40.6631,"lng":-73.9509},{"id":"Q2617505","name":"President Street–Medgar Evers College","lat":40.668,"lng":-73.9507},{"id":"Q2617642","name":"Buhre Avenue","lat":40.847,"lng":-73.8323},{"id":"Q2617650","name":"Flatbush Avenue – Brooklyn College","lat":40.632361111,"lng":-73.947486111},{"id":"Q2617658","name":"Morrison Avenue – Soundview","lat":40.8295,"lng":-73.8745},{"id":"Q2616272","name":"Bay Parkway","lat":40.6027,"lng":-73.9943},{"id":"Q2616330","name":"Bedford Park Boulevard","lat":40.8725,"lng":-73.8879},{"id":"Q2616494","name":"Gates Avenue","lat":40.6895,"lng":-73.9221},{"id":"Q2616500","name":"Halsey Street station","lat":40.6857,"lng":-73.9155},{"id":"Q2616507","name":"Fresh Pond Road","lat":40.706,"lng":-73.8967},{"id":"Q2616774","name":"Wilson Avenue","lat":40.6884,"lng":-73.9043},{"id":"Q2616792","name":"Fulton Street","lat":40.687,"lng":-73.9763},{"id":"Q7338894","name":"Rivington Street","lat":40.7205,"lng":-73.9899},{"id":"Q7354939","name":"Rockaway Avenue","lat":40.678262,"lng":-73.910775},{"id":"Q7368064","name":"Rosebank","lat":40.6146,"lng":-74.0703},{"id":"Q4552848","name":"174th Street","lat":40.8424,"lng":-73.8983},{"id":"Q4553922","name":"180th Street","lat":40.8507,"lng":-73.894},{"id":"Q4554537","name":"183rd Street","lat":40.8542,"lng":-73.8908},{"id":"Q4557667","name":"18th Street","lat":40.7398,"lng":-73.995},{"id":"Q4557668","name":"18th Street","lat":40.7357,"lng":-73.9853},{"id":"Q4595818","name":"19th Street","lat":40.7344,"lng":-73.9803},{"id":"Q4616410","name":"200th Street","lat":40.8672,"lng":-73.8836},{"id":"Q4630444","name":"204th Street","lat":40.8714,"lng":-73.8765},{"id":"Q4630810","name":"20th Street","lat":40.6619,"lng":-73.9928},{"id":"Q4630866","name":"210th Street – Williamsbridge","lat":40.8778,"lng":-73.8719},{"id":"Q4631692","name":"23rd Street","lat":40.7465,"lng":-74.0014},{"id":"Q4631693","name":"23rd Street","lat":40.7429,"lng":-73.9928},{"id":"Q4631695","name":"23rd Street","lat":40.7375,"lng":-73.98},{"id":"Q4631696","name":"23rd Street","lat":40.7388,"lng":-73.9832},{"id":"Q2612899","name":"High Street","lat":40.6991,"lng":-73.9899},{"id":"Q2612907","name":"50th Street","lat":40.7623,"lng":-73.9861},{"id":"Q2612947","name":"Shepherd Avenue","lat":40.6741,"lng":-73.8808},{"id":"Q2612959","name":"14th Street – Eighth Avenue","lat":40.7398,"lng":-74.0025},{"id":"Q2612964","name":"135th Street station","lat":40.8171,"lng":-73.948},{"id":"Q2612968","name":"Beach 98th Street","lat":40.5854,"lng":-73.8202},{"id":"Q7416912","name":"Sands Street","lat":40.699943,"lng":-73.988345},{"id":"Q4631704","name":"23rd Street","lat":40.742893,"lng":-73.992865},{"id":"Q4632320","name":"25th Street","lat":40.6591,"lng":-73.9958},{"id":"Q4632834","name":"28th Street","lat":40.746,"lng":-73.9905},{"id":"Q4632835","name":"28th Street","lat":40.7419,"lng":-73.9809},{"id":"Q4634647","name":"30th Street","lat":40.7509,"lng":-73.9981},{"id":"Q4635443","name":"34th Street–Hudson Yards","lat":40.7558,"lng":-74.002},{"id":"Q4635444","name":"34th Street","lat":40.7534,"lng":-73.9963},{"id":"Q4635445","name":"34th Street","lat":40.7448,"lng":-73.9758},{"id":"Q4635447","name":"34th Street","lat":40.7457,"lng":-73.9781},{"id":"Q4635782","name":"36th Street","lat":40.6529,"lng":-74.0022},{"id":"Q4636046","name":"38th Street","lat":40.7523,"lng":-73.986},{"id":"Q7303217","name":"Rector Street","lat":40.7079,"lng":-74.0136},{"id":"Q7303219","name":"Rector Street","lat":40.7077,"lng":-74.013},{"id":"Q7309937","name":"Reid Avenue","lat":40.690055,"lng":-73.93047},{"id":"Q7309938","name":"Reid Avenue","lat":40.679276,"lng":-73.9291},{"id":"Q7330799","name":"Richmond County Bank Ballpark","lat":40.6452,"lng":-74.0773},{"id":"Q7331035","name":"Richmond Valley","lat":40.5196,"lng":-74.2293},{"id":"Q4029120","name":"168th Street","lat":40.7056,"lng":-73.7944},{"id":"Q6175368","name":"Jefferson Avenue","lat":40.5838,"lng":-74.103},{"id":"Q4637816","name":"42nd Street","lat":40.7584,"lng":-73.9926},{"id":"Q4637818","name":"42nd Street","lat":40.7498,"lng":-73.9722},{"id":"Q4637819","name":"42nd Street","lat":40.7548,"lng":-73.9841},{"id":"Q4637821","name":"42nd Street","lat":40.7508,"lng":-73.9744},{"id":"Q4638398","name":"46th Street","lat":40.6498,"lng":-74.0127},{"id":"Q4638567","name":"47th Street","lat":40.7539,"lng":-73.9721},{"id":"Q4639965","name":"50th Street","lat":40.7635,"lng":-73.989},{"id":"Q4639967","name":"50th Street","lat":40.7599,"lng":-73.9804},{"id":"Q4639968","name":"50th Street","lat":40.7549,"lng":-73.9685},{"id":"Q4640276","name":"52nd Street","lat":40.6467,"lng":-74.0159},{"id":"Q4640405","name":"53rd Street","lat":40.7576,"lng":-73.9694},{"id":"Q4640848","name":"57th Street","lat":40.7593,"lng":-73.9653},{"id":"Q4640940","name":"58th Street Terminal","lat":40.765,"lng":-73.9767},{"id":"Q4641021","name":"58th Street","lat":40.6433,"lng":-74.0194},{"id":"Q4641022","name":"59th Street","lat":40.7692,"lng":-73.9848},{"id":"Q4642145","name":"65th Street Terminal","lat":40.6392,"lng":-74.0236},{"id":"Q4642146","name":"65th Street","lat":40.7644,"lng":-73.9616},{"id":"Q4642231","name":"66th Street","lat":40.7736,"lng":-73.9816},{"id":"Q2616905","name":"Norwood Avenue station","lat":40.6816,"lng":-73.8792},{"id":"Q2616970","name":"Atlantic Avenue","lat":40.6757,"lng":-73.903},{"id":"Q2616979","name":"New Lots Avenue","lat":40.659,"lng":-73.8994},{"id":"Q2616988","name":"Graham Avenue","lat":40.7145,"lng":-73.9444},{"id":"Q2617073","name":"Cleveland Street station","lat":40.6796,"lng":-73.8856},{"id":"Q2617203","name":"Cypress Hills","lat":40.6897,"lng":-73.8731},{"id":"Q2617225","name":"Van Siclen Avenue","lat":40.678,"lng":-73.8917},{"id":"Q2617298","name":"Saratoga Avenue","lat":40.6615,"lng":-73.9156},{"id":"Q2617303","name":"Grand Street","lat":40.7119,"lng":-73.9407},{"id":"Q2617743","name":"Castle Hill Avenue","lat":40.8341,"lng":-73.8517},{"id":"Q2617820","name":"Van Siclen Avenue","lat":40.6655,"lng":-73.8886},{"id":"Q2618004","name":"Middletown Road","lat":40.8434,"lng":-73.8368},{"id":"Q2618248","name":"Elder Avenue","lat":40.8286,"lng":-73.8792},{"id":"Q2618253","name":"Church Avenue","lat":40.6508,"lng":-73.95},{"id":"Q2618259","name":"Newkirk Avenue–Little Haiti station","lat":40.6399,"lng":-73.9485},{"id":"Q4551253","name":"161st Street","lat":40.8231,"lng":-73.9092},{"id":"Q4551714","name":"166th Street","lat":40.8283,"lng":-73.9069},{"id":"Q4551996","name":"169th Street","lat":40.8331,"lng":-73.9047},{"id":"Q4552236","name":"16th Street","lat":40.6649,"lng":-73.9899},{"id":"Q7400440","name":"Sailors' Snug Harbor","lat":40.6453,"lng":-74.1017},{"id":"Q7401779","name":"Saint Marks Avenue","lat":40.6808,"lng":-73.9775},{"id":"Q7423347","name":"Saratoga Avenue","lat":40.67858,"lng":-73.916322},{"id":"Q7445267","name":"Sedgwick Avenue","lat":40.831423,"lng":-73.932264},{"id":"Q2159540","name":"Fifth Avenue-59th Street","lat":40.7648,"lng":-73.9726},{"id":"Q2159565","name":"Alabama Avenue","lat":40.67683,"lng":-73.900008},{"id":"Q4642301","name":"67th Street","lat":40.7666,"lng":-73.9629},{"id":"Q4643230","name":"72nd Street","lat":40.7688,"lng":-73.9584},{"id":"Q4643231","name":"72nd Street","lat":40.7688,"lng":-73.9584},{"id":"Q4643233","name":"72nd Street","lat":40.7774,"lng":-73.9788},{"id":"Q4643532","name":"76th Street","lat":40.7722,"lng":-73.9587},{"id":"Q4644463","name":"80th Street","lat":40.7743,"lng":-73.9544},{"id":"Q4644567","name":"81st Street","lat":40.7832,"lng":-73.9745},{"id":"Q4644945","name":"86th Street","lat":40.7779,"lng":-73.9518},{"id":"Q4644946","name":"86th Street","lat":40.7779,"lng":-73.9517},{"id":"Q4644947","name":"86th Street","lat":40.7865,"lng":-73.9722},{"id":"Q4645155","name":"89th Street","lat":40.7807,"lng":-73.9525},{"id":"Q4645847","name":"92nd Street","lat":40.7817,"lng":-73.949},{"id":"Q4646118","name":"96th Street","lat":40.7841,"lng":-73.9472},{"id":"Q4646345","name":"99th Street","lat":40.7948,"lng":-73.966},{"id":"Q4646346","name":"99th Street","lat":40.7861,"lng":-73.9456},{"id":"Q4646347","name":"99th Street","lat":40.7869,"lng":-73.9481},{"id":"Q4646684","name":"9th Street","lat":40.73421,"lng":-73.998944},{"id":"Q2630288","name":"South Ferry – Whitehall Street","lat":40.7025959,"lng":-74.0128791},{"id":"Q4680407","name":"Adams Street","lat":40.693902,"lng":-73.988694},{"id":"Q2151967","name":"88th Street station","lat":40.6799,"lng":-73.8507},{"id":"Q10749505","name":"Court Square","lat":40.7465,"lng":-73.944},{"id":"Q2146052","name":"Briarwood station","lat":40.7097,"lng":-73.8196},{"id":"Q2172841","name":"Kings Highway station","lat":40.6032,"lng":-73.9723},{"id":"Q2193425","name":"WTC Cortlandt","lat":40.711,"lng":-74.012388888},{"id":"Q2195401","name":"Burnside Avenue","lat":40.8537,"lng":-73.9074},{"id":"Q5069661","name":"Chambers Street","lat":40.7155,"lng":-74.0093},{"id":"Q7007018","name":"New Dorp","lat":40.5736,"lng":-74.1171},{"id":"Q7018740","name":"Newport","lat":40.726676,"lng":-74.034757},{"id":"Q7039236","name":"Ninth Street","lat":40.6692,"lng":-73.9863},{"id":"Q7039237","name":"Ninth Street","lat":40.73,"lng":-73.9894},{"id":"Q2183775","name":"Wall Street","lat":40.7075,"lng":-74.012222},{"id":"Q2188221","name":"125th Street","lat":40.815278,"lng":-73.958056},{"id":"Q2207557","name":"116th Street station","lat":40.7986,"lng":-73.942},{"id":"Q2210205","name":"Cortelyou Road","lat":40.6416,"lng":-73.9643},{"id":"Q2212011","name":"Pelham Parkway station","lat":40.8581,"lng":-73.8561},{"id":"Q6471342","name":"Lafayette Avenue","lat":40.678847222,"lng":-73.973377777},{"id":"Q6474867","name":"Lake Avenue","lat":40.6341,"lng":-74.1511},{"id":"Q6948582","name":"Myrtle Avenue","lat":40.693661,"lng":-73.964082},{"id":"Q2198512","name":"50th Street","lat":40.761389,"lng":-73.983889},{"id":"Q2199564","name":"Astor Place","lat":40.729722222,"lng":-73.991666666},{"id":"Q2200193","name":"Elmhurst Avenue","lat":40.7418,"lng":-73.881},{"id":"Q2201450","name":"20th Avenue","lat":40.6172,"lng":-73.9848},{"id":"Q5087689","name":"Chatham Square station","lat":40.7136,"lng":-73.9981},{"id":"Q5031022","name":"Canal Street","lat":40.7151,"lng":-73.9926},{"id":"Q5031024","name":"Canal Street","lat":40.7158,"lng":-73.9963},{"id":"Q5056568","name":"Cedar Avenue","lat":40.5966,"lng":-74.0656},{"id":"Q6967546","name":"Nassau","lat":40.5178,"lng":-74.2384},{"id":"Q6982686","name":"Navy Street","lat":40.693509,"lng":-73.979176},{"id":"Q2217986","name":"Hunts Point Avenue station","lat":40.8206,"lng":-73.8916},{"id":"Q2219277","name":"Dyckman Street","lat":40.8655,"lng":-73.9273},{"id":"Q2981958","name":"Lexington Avenue–53rd Street/51st Street station","lat":40.757075,"lng":-73.971977777},{"id":"Q2982151","name":"Grand Central – 42nd Street","lat":40.752222222,"lng":-73.9775},{"id":"Q2982193","name":"34th Street – Herald Square","lat":40.7493,"lng":-73.988},{"id":"Q2982207","name":"28th Street station","lat":40.746944,"lng":-73.993333},{"id":"Q2982347","name":"68th Street–Hunter College station","lat":40.7678,"lng":-73.9641},{"id":"Q8255325","name":"14th Street–Union Square","lat":40.73479,"lng":-73.98997},{"id":"Q5453840","name":"First Street","lat":40.7232,"lng":-73.9885},{"id":"Q5457868","name":"Flatbush Avenue","lat":40.688923,"lng":-73.98095},{"id":"Q5468077","name":"Fordham Road – 190th Street","lat":40.86083333,"lng":-73.89083333},{"id":"Q2982354","name":"59th Street–Columbus Circle","lat":40.768055555,"lng":-73.981944444},{"id":"Q2982388","name":"42nd Street–Bryant Park/Fifth Avenue","lat":40.754799,"lng":-73.984208},{"id":"Q2982552","name":"Fulton Street","lat":40.7102,"lng":-74.0077},{"id":"Q2982555","name":"96th Street","lat":40.7858,"lng":-73.951},{"id":"Q2983355","name":"14th Street","lat":40.7373,"lng":-73.9968},{"id":"Q2983379","name":"63rd Drive – Rego Park","lat":40.73,"lng":-73.862},{"id":"Q5123191","name":"City Hall","lat":40.7125,"lng":-74.0037},{"id":"Q5471281","name":"Fort Hamilton Parkway","lat":40.6441,"lng":-73.989},{"id":"Q5472229","name":"Fort Wadsworth","lat":40.607,"lng":-74.0665},{"id":"Q5491261","name":"Franklin Avenue","lat":40.69436,"lng":-73.958001},{"id":"Q5491845","name":"Franklin Square","lat":40.7094,"lng":-74.0014},{"id":"Q5491867","name":"Franklin Street","lat":40.7189,"lng":-74.0065},{"id":"Q2181850","name":"Third Avenue","lat":40.7332,"lng":-73.9872},{"id":"Q2985519","name":"Nassau Avenue","lat":40.7238,"lng":-73.9508},{"id":"Q5126320","name":"Claremont Parkway","lat":40.8382,"lng":-73.9011},{"id":"Q5133169","name":"Clifton","lat":40.6215,"lng":-74.0715},{"id":"Q5508428","name":"Fulton Ferry","lat":40.703281,"lng":-73.995085},{"id":"Q5508460","name":"Fulton Street","lat":40.6887,"lng":-73.9803},{"id":"Q5508463","name":"Fulton Street","lat":40.7078,"lng":-74.0044},{"id":"Q5093989","name":"Chestnut Street","lat":40.675209,"lng":-73.873432},{"id":"Q2421757","name":"67th Avenue","lat":40.727,"lng":-73.8537},{"id":"Q14706133","name":"10th Avenue","lat":40.759,"lng":-73.996},{"id":"Q14706135","name":"133rd Street","lat":40.8068,"lng":-73.9258},{"id":"Q14706144","name":"33rd Street","lat":40.7489,"lng":-73.9885},{"id":"Q14706146","name":"34th Street Ferry","lat":40.7436,"lng":-73.9731},{"id":"Q14706148","name":"40th Street","lat":40.6531,"lng":-74.0092},{"id":"Q14706152","name":"59th Street","lat":40.7615,"lng":-73.9666},{"id":"Q14706153","name":"93rd Street","lat":40.7909,"lng":-73.9689},{"id":"Q14707056","name":"New Brighton","lat":40.6469,"lng":-74.0893},{"id":"Q14707537","name":"Union Street","lat":40.6764,"lng":-73.9805},{"id":"Q2410289","name":"71st Street","lat":40.6192,"lng":-73.999},{"id":"Q2410552","name":"116th Street station","lat":40.801944,"lng":-73.949722},{"id":"Q5307517","name":"Driggs Avenue","lat":40.7099,"lng":-73.9623},{"id":"Q2415223","name":"Rector Street","lat":40.707778,"lng":-74.013333},{"id":"Q2415750","name":"65th Street","lat":40.7494,"lng":-73.8973},{"id":"Q2430804","name":"Spring Street","lat":40.7255,"lng":-74.004},{"id":"Q2431462","name":"Canal Street","lat":40.7181,"lng":-74},{"id":"Q5113294","name":"Christopher Street","lat":40.733027777,"lng":-74.007027777},{"id":"Q5113295","name":"Christopher Street","lat":40.7329,"lng":-74.0075},{"id":"Q2981950","name":"Atlantic Avenue – Barclays Center","lat":40.683633,"lng":-73.976983},{"id":"Q5491869","name":"Franklin Street","lat":40.7194,"lng":-74.0102},{"id":"Q5330372","name":"Eastern Parkway","lat":40.67348,"lng":-73.902947},{"id":"Q5349122","name":"Eighth Street","lat":40.7276,"lng":-73.9853},{"id":"Q5349124","name":"Eighth Street","lat":40.7336,"lng":-73.9996},{"id":"Q7784962","name":"Third Street","lat":40.6728,"lng":-73.9833},{"id":"Q2447422","name":"Euclid Avenue station","lat":40.6754,"lng":-73.8719},{"id":"Q2454523","name":"Beach 36th Street","lat":40.5954,"lng":-73.7681},{"id":"Q4546552","name":"104th Street","lat":40.7979,"lng":-73.9639},{"id":"Q4546616","name":"105th Street","lat":40.7899,"lng":-73.9429},{"id":"Q4546689","name":"106th Street","lat":40.7906,"lng":-73.9425},{"id":"Q4546691","name":"106th Street","lat":40.7917,"lng":-73.9444},{"id":"Q4547290","name":"110th Street","lat":40.8011,"lng":-73.9596},{"id":"Q4547352","name":"111th Street","lat":40.7938,"lng":-73.9401},{"id":"Q4547581","name":"116th Street","lat":40.797,"lng":-73.938},{"id":"Q4547582","name":"116th Street","lat":40.7981,"lng":-73.94},{"id":"Q4547584","name":"116th Street","lat":40.8044,"lng":-73.9554},{"id":"Q4547637","name":"117th Street","lat":40.7977,"lng":-73.9373},{"id":"Q4548208","name":"121st Street","lat":40.8002,"lng":-73.9354},{"id":"Q4548458","name":"125th Street","lat":40.8101,"lng":-73.9512},{"id":"Q7566274","name":"South Beach","lat":40.591,"lng":-74.0676},{"id":"Q7567218","name":"South Ferry","lat":40.7016,"lng":-74.0136},{"id":"Q7820359","name":"Tompkins Avenue","lat":40.695711,"lng":-73.946367},{"id":"Q7820375","name":"Tompkinsville train station","lat":40.6368,"lng":-74.0748},{"id":"Q7828471","name":"Tottenville","lat":40.5125,"lng":-74.2523},{"id":"Q7829687","name":"Tower Hill","lat":40.6387,"lng":-74.1373},{"id":"Q7838141","name":"Tremont Avenue – 177th Street","lat":40.8467,"lng":-73.8961},{"id":"Q4548459","name":"125th Street","lat":40.8036,"lng":-73.9358},{"id":"Q4548461","name":"125th Street","lat":40.8036,"lng":-73.9358},{"id":"Q4548652","name":"129th Street","lat":40.8058,"lng":-73.9331},{"id":"Q4549009","name":"130th Street","lat":40.8134,"lng":-73.9489},{"id":"Q4549186","name":"135th Street","lat":40.8165,"lng":-73.9465},{"id":"Q4549279","name":"138th Street","lat":40.8091,"lng":-73.9241},{"id":"Q4549407","name":"13th Avenue","lat":40.6413,"lng":-73.9845},{"id":"Q4549625","name":"140th Street","lat":40.8197,"lng":-73.9442},{"id":"Q4549725","name":"143rd Street","lat":40.8124,"lng":-73.9218},{"id":"Q4549791","name":"145th Street","lat":40.8228,"lng":-73.9419},{"id":"Q4549918","name":"149th Street","lat":40.8158,"lng":-73.9182},{"id":"Q4550092","name":"14th Street","lat":40.741,"lng":-74.0054},{"id":"Q4550093","name":"14th Street","lat":40.7313,"lng":-73.9826},{"id":"Q4550094","name":"14th Street station","lat":40.737361111,"lng":-73.996833333},{"id":"Q4550095","name":"14th Street","lat":40.7333,"lng":-73.9872},{"id":"Q4550098","name":"14th Street","lat":40.737393,"lng":-73.996862},{"id":"Q4550266","name":"151st Street","lat":40.8266,"lng":-73.9392},{"id":"Q4550558","name":"155th Street","lat":40.8301,"lng":-73.9382},{"id":"Q4550638","name":"156th Street","lat":40.8203,"lng":-73.9129},{"id":"Q5916739","name":"Houston Street","lat":40.7289,"lng":-74.0086},{"id":"Q5916742","name":"Houston Street","lat":40.7242,"lng":-73.9926},{"id":"Q7637957","name":"Sumner Avenue","lat":40.689,"lng":-73.9392},{"id":"Q7637958","name":"Sumner Avenue","lat":40.696366,"lng":-73.940686},{"id":"Q2455849","name":"Nevins Street","lat":40.6887,"lng":-73.9809},{"id":"Q2460511","name":"Ocean Parkway","lat":40.576111,"lng":-73.968333},{"id":"Q2436759","name":"Beach 67th Street station","lat":40.5909,"lng":-73.7968},{"id":"Q2439660","name":"Ninth Avenue","lat":40.6466,"lng":-73.9947},{"id":"Q2446286","name":"Beach 90th Street","lat":40.5881,"lng":-73.8135},{"id":"Q15292812","name":"Court Street","lat":40.6904,"lng":-73.99},{"id":"Q5419580","name":"Exchange Place","lat":40.7162,"lng":-74.032981},{"id":"Q7287192","name":"Ralph Avenue","lat":40.678874,"lng":-73.921665},{"id":"Q5366300","name":"Elm Park","lat":40.6351,"lng":-74.1456},{"id":"Q5366306","name":"Elm Place-Duffield Street","lat":40.690242,"lng":-73.98433},{"id":"Q5367819","name":"Eltingville","lat":40.5444,"lng":-74.1651},{"id":"Q17993669","name":"Chambers Street–World Trade Center","lat":40.7127,"lng":-74.0097},{"id":"Q17623038","name":"Botanic Garden","lat":40.67064,"lng":-73.95915},{"id":"Q5934692","name":"Huguenot","lat":40.5336,"lng":-74.1919},{"id":"Q18151772","name":"Hinsdale Street","lat":40.671205,"lng":-73.900496},{"id":"Q4409088","name":"Sutphin Boulevard","lat":40.7017,"lng":-73.8078},{"id":"Q30600855","name":"Park Avenue","lat":40.69891667,"lng":-73.93872222},{"id":"Q6764377","name":"Mariners' Harbor","lat":40.6339,"lng":-74.1552},{"id":"Q21002596","name":"Broadway – Lafayette Street","lat":40.725213,"lng":-73.995717},{"id":"Q6555179","name":"Linwood Street","lat":40.67386,"lng":-73.882586},{"id":"Q6659626","name":"Livingston","lat":40.6455,"lng":-74.1088},{"id":"Q2799552","name":"103rd Street","lat":40.7994,"lng":-73.9682},{"id":"Q7163658","name":"Pennsylvania Avenue","lat":40.671904,"lng":-73.895861},{"id":"Q2331252","name":"Rockaway Boulevard","lat":40.6805,"lng":-73.8437},{"id":"Q2331548","name":"Broad Channel","lat":40.608618,"lng":-73.816},{"id":"Q2332237","name":"Aqueduct Racetrack station","lat":40.6721,"lng":-73.8359},{"id":"Q2337501","name":"Flushing Avenue","lat":40.7007,"lng":-73.942},{"id":"Q2338494","name":"Avenue H","lat":40.63,"lng":-73.962},{"id":"Q2343574","name":"West Fourth Street – Washington Square","lat":40.7317,"lng":-74.0009},{"id":"Q7913660","name":"Van Siclen Avenue","lat":40.672726,"lng":-73.890348},{"id":"Q7914430","name":"Vanderbilt Avenue","lat":40.683793,"lng":-73.967987},{"id":"Q7914431","name":"Vanderbilt Avenue","lat":40.693138,"lng":-73.969847},{"id":"Q5594270","name":"Grand Avenue","lat":40.682382,"lng":-73.979255},{"id":"Q5594272","name":"Grand Avenue","lat":40.693661,"lng":-73.964061},{"id":"Q5594397","name":"Grand Central","lat":40.7519,"lng":-73.9772},{"id":"Q5595116","name":"Grand Street","lat":40.7174,"lng":-73.9915},{"id":"Q5595119","name":"Grand Street","lat":40.7189,"lng":-73.9946},{"id":"Q2347941","name":"Queens Plaza station","lat":40.7489,"lng":-73.9374},{"id":"Q2350333","name":"St. Lawrence Avenue","lat":40.8316,"lng":-73.8673},{"id":"Q2350435","name":"Lorimer Street / Metropolitan Avenue (New York City Subway)","lat":40.7128,"lng":-73.9515},{"id":"Q2350658","name":"Longwood Avenue","lat":40.8163,"lng":-73.8962},{"id":"Q5595120","name":"Grand Street","lat":40.7224,"lng":-74.0038},{"id":"Q7061984","name":"Nostrand Avenue","lat":40.680377,"lng":-73.949543},{"id":"Q7061985","name":"Nostrand Avenue","lat":40.687677,"lng":-73.951038},{"id":"Q7061986","name":"Nostrand Avenue","lat":40.694991,"lng":-73.952502},{"id":"Q7074321","name":"Oakwood Heights","lat":40.5647,"lng":-74.1269},{"id":"Q2326996","name":"85th Street – Forest Parkway","lat":40.6924,"lng":-73.8601},{"id":"Q2328205","name":"Van Siclen Avenue station","lat":40.6727,"lng":-73.8903},{"id":"Q2328273","name":"46th Street – Bliss Street","lat":40.74313333,"lng":-73.91840278},{"id":"Q5596101","name":"Grant Avenue","lat":40.678848,"lng":-73.866082},{"id":"Q5596144","name":"Grant City","lat":40.5793,"lng":-74.1093},{"id":"Q5597403","name":"Grasmere","lat":40.6035,"lng":-74.0838},{"id":"Q5599393","name":"Great Kills","lat":40.5513,"lng":-74.1513},{"id":"Q5603836","name":"Greene Avenue","lat":40.68709,"lng":-73.962548},{"id":"Q5611460","name":"Grove Street station","lat":40.719671,"lng":-74.043117},{"id":"Q7203919","name":"Pleasant Plains","lat":40.5224,"lng":-74.2179},{"id":"Q7230890","name":"Port Richmond","lat":40.6391,"lng":-74.1311},{"id":"Q2328744","name":"East 143rd Street – St. Mary's Street","lat":40.8081,"lng":-73.9079},{"id":"Q2330634","name":"Third Avenue–138th Street station","lat":40.811,"lng":-73.9272},{"id":"Q2330847","name":"Hoyt–Schermerhorn Streets station","lat":40.689,"lng":-73.9861},{"id":"Q2351021","name":"Cypress Avenue","lat":40.8055,"lng":-73.9145},{"id":"Q2351655","name":"Brook Avenue station","lat":40.8075,"lng":-73.9193},{"id":"Q2368151","name":"Junction Boulevard","lat":40.749175,"lng":-73.869097222},{"id":"Q2359935","name":"Grand Avenue – Newtown","lat":40.7369,"lng":-73.8775},{"id":"Q7243727","name":"Prince's Bay","lat":40.5254,"lng":-74.2003},{"id":"Q7085258","name":"Old Town","lat":40.5964,"lng":-74.0875},{"id":"Q11704016","name":"South Ferry","lat":40.70171,"lng":-74.01316},{"id":"Q11811476","name":"Park Place station (Broadway – Seventh Avenue Line)","lat":40.7132,"lng":-74.00918},{"id":"Q11680081","name":"Lexington Avenue–53rd Street","lat":40.7582,"lng":-73.9706},{"id":"Q11680084","name":"Myrtle–Wyckoff Avenues","lat":40.699511,"lng":-73.911166},{"id":"Q11680422","name":"14th Street–Union Square","lat":40.7347,"lng":-73.9903},{"id":"Q11680426","name":"Chambers Street","lat":40.713037,"lng":-74.003858},{"id":"Q11680431","name":"Jay Street – MetroTech","lat":40.69218,"lng":-73.98595},{"id":"Q5649423","name":"Hanover Square","lat":40.7047,"lng":-74.0093},{"id":"Q5654670","name":"Harbor Road","lat":40.6338,"lng":-74.1601},{"id":"Q5665472","name":"Harrison","lat":40.7392,"lng":-74.1554},{"id":"Q7137925","name":"Park Place","lat":40.7132,"lng":-74.0093},{"id":"Q7137986","name":"Park Row","lat":40.7122,"lng":-74.0044},{"id":"Q16974948","name":"Franklin Avenue","lat":40.693663,"lng":-73.964069},{"id":"Q16982184","name":"Montauk Avenue","lat":40.674514,"lng":-73.87804},{"id":"Q7970508","name":"Warren Street","lat":40.7156,"lng":-74.0112},{"id":"Q7971670","name":"Washington Avenue","lat":40.693347,"lng":-73.966892},{"id":"Q7983006","name":"Wentworth Avenue","lat":40.589,"lng":-74.0699},{"id":"Q7986058","name":"West New Brighton","lat":40.6415,"lng":-74.1173},{"id":"Q8022020","name":"Willis Avenue","lat":40.8053,"lng":-73.9262},{"id":"Q109805448","name":"Delancey Street","lat":40.71843,"lng":-73.98819},{"id":"Q109806536","name":"Essex Street","lat":40.7184,"lng":-73.98743},{"id":"Q19604594","name":"Troy Avenue","lat":40.679582,"lng":-73.934947},{"id":"Q16141655","name":"161st Street River Avenue Yankee Stadium","lat":40.827937,"lng":-73.925886},{"id":"Q109629886","name":"Fifth Avenue","lat":40.75381,"lng":-73.98196},{"id":"Q109646835","name":"Court Street","lat":40.6941,"lng":-73.99178},{"id":"Q109647178","name":"World Trade Center station (IND Eighth Avenue Line)","lat":40.71221,"lng":-74.01001},{"id":"Q109717997","name":"Union Square","lat":40.7346,"lng":-73.99035},{"id":"Q134043283","name":"Evergreen Avenue station","lat":40.699412,"lng":-73.912185}]}
